     2.10           OBSERVATION DATA    M (MIXED)           RINEX VERSION / TYPE
RTKCONV 2.4.2                           20150702 011256 UTC PGM / RUN BY / DATE 
log: D:\Work\SoftGPSSim\trajgen\rtk\base.ubx                COMMENT             
format: u-blox                                              COMMENT             
                                                            MARKER NAME         
                                                            MARKER NUMBER       
                                                            OBSERVER / AGENCY   
                                                            REC # / TYPE / VERS 
                                                            ANT # / TYPE        
 -3813410.5742  3554350.8843  3662786.7447                  APPROX POSITION XYZ 
        0.0000        0.0000        0.0000                  ANTENNA: DELTA H/E/N
     1     1                                                WAVELENGTH FACT L1/2
     4    C1    L1    D1    S1                              # / TYPES OF OBSERV 
  2014    12    20     0     0   21.0000000     GPS         TIME OF FIRST OBS   
  2014    12    20     0     5    2.0000000     GPS         TIME OF LAST OBS    
                                                            END OF HEADER       
 14 12 20  0  0 21.0000000  0 13G23G 2G 3G 1G20G32G 6G28G17G 9G10G11
                                G12
  22476378.687       -9814.9892        529.085          42.000  
  24905717.992      -26962.0322       1475.701          42.000  
  22010056.414       68629.4182      -3604.610          42.000  
  23719406.435       63225.1312      -3328.933          42.000  
  21066895.110       60432.8852      -3170.237          42.000  
  25650337.297       86304.9172      -4539.481          42.000  
  21627960.199      -14398.9822        761.909          42.000  
  22509707.504       73152.0492      -3844.086          42.000  
  20222044.318        5543.3832       -316.700          43.000  
  22730302.739      -37591.9682       1993.468          43.000  
  22063206.776      -42646.7582       2305.392          42.000  
  25088801.192       74143.5452      -3895.382          42.000  
  24965261.660      -31898.2912       1637.500          42.000  
 14 12 20  0  0 22.0000000  0 13G23G 2G 3G 1G20G32G 6G28G17G 9G10G11
                                G12
  22476279.099      -10343.6182        528.223          42.000  
  24905436.659      -28437.5742       1476.052          43.000  
  22010742.696       72234.0762      -3605.258          42.000  
  23720039.983       66554.1962      -3329.568          42.000  
  21067499.219       63603.1432      -3170.307          42.000  
  25651200.856       90845.3972      -4539.674          42.000  
  21627815.345      -15161.1532        761.447          42.000  
  22510439.157       76996.6672      -3844.321          42.000  
  20222105.359        5860.5512       -316.867          43.000  
  22729923.406      -39585.0332       1992.803          42.000  
  22062768.461      -44952.2022       2305.639          42.000  
  25089542.774       78038.9562      -3895.449          42.000  
  24964949.981      -33535.5932       1636.865          42.000  
 14 12 20  0  0 23.0000000  0 13G23G 2G 3G 1G20G32G 6G28G17G 9G10G11
                                G12
  22476179.162      -10871.8042        527.828          42.000  
  24905156.234      -29913.1372       1475.125          43.000  
  22011429.380       75839.0002      -3604.712          42.000  
  23720673.897       69883.2982      -3329.065          43.000  
  21068102.525       66773.7502      -3170.643          42.000  
  25652065.096       95385.7962      -4540.058          42.000  
  21627671.241      -15923.1802        762.023          42.000  
  22511170.425       80841.5022      -3844.826          42.000  
  20222165.510        6178.1972       -317.930          43.000  
  22729544.980      -41577.8642       1992.682          42.000  
  22062330.304      -47257.3202       2305.329          42.000  
  25090284.163       81934.3952      -3895.159          42.000  
  24964638.949      -35172.5022       1636.892          42.000  
 14 12 20  0  0 24.0000000  0 13G23G 2G 3G 1G20G32G 6G28G17G 9G10G11
                                G12
  22476079.416      -11399.4792        527.511          42.000  
  24904875.635      -31388.6842       1474.673          42.000  
  22012114.929       79444.2232      -3605.237          42.000  
  23721307.532       73212.4632      -3329.669          42.000  
  21068706.477       69944.7422      -3171.721          42.000  
  25652929.754       99926.2052      -4541.013          42.000  
  21627526.893      -16685.0342        761.845          42.000  
  22511902.462       84686.6232      -3845.565          42.000  
  20222226.220        6496.3862       -318.381          42.000  
  22729165.874      -43570.4102       1991.859          42.000  
  22061892.600      -49562.0622       2303.762          42.000  
  25091025.170       85829.9292      -3896.295          42.000  
  24964327.899      -36808.9422       1636.027          42.000  
 14 12 20  0  0 25.0000000  0 13G23G 2G 3G 1G20G32G 6G28G17G 9G10G11
                                G12
  22475979.514      -11927.560         527.053          42.000  
  24904595.158      -32864.611        1476.179          42.000  
  22012801.892       83049.342       -3605.243          42.000  
  23721941.551       76541.298       -3329.002          42.000  
  21069310.342       73115.745       -3171.312          42.000  
  25653793.749      104465.722       -4539.975          42.000  
  21627382.178      -17447.608         762.060          42.000  
  22512635.109       88531.631       -3844.374          42.000  
  20222287.243        6814.681        -318.825          43.000  
  22728786.262      -45563.575        1992.725          42.000  
  22061454.128      -51866.798        2305.101          42.000  
  25091766.786       89725.146       -3895.933          42.000  
  24964016.447      -38445.831        1635.575          42.000  
 14 12 20  0  0 26.0000000  0 13G23G 2G 3G 1G20G32G 6G28G17G 9G10G11
                                G12
  22475879.349      -12454.823         527.273          42.000  
  24904315.029      -34340.692        1476.446          42.000  
  22013487.912       86654.588       -3605.317          42.000  
  23722574.837       79870.024       -3328.321          42.000  
  21069913.980       76286.957       -3171.116          42.000  
  25654658.198      109005.570       -4539.387          42.000  
  21627238.004      -18209.659         761.910          42.000  
  22513367.146       92376.730       -3844.727          42.000  
  20222347.586        7133.349        -318.738          43.000  
  22728407.523      -47556.144        1992.627          42.000  
  22061015.709      -54171.342        2304.674          42.000  
  25092508.194       93620.287       -3895.350          42.000  
  24963704.873      -40081.936        1635.683          43.000  
 14 12 20  0  0 27.0000000  0 13G23G 2G 3G 1G20G32G 6G28G17G 9G10G11
                                G12
  22475779.517      -12981.495         527.277          42.000  
  24904034.098      -35816.695        1476.664          42.000  
  22014174.316       90260.207       -3604.548          42.000  
  23723208.175       83198.917       -3328.051          42.000  
  21070517.216       79458.637       -3170.333          42.000  
  25655521.792      113545.476       -4538.710          42.000  
  21627093.482      -18971.438         763.559          42.000  
  22514099.567       96222.174       -3844.427          42.000  
  20222408.627        7452.602        -318.367          43.000  
  22728029.342      -49548.353        1993.687          42.000  
  22060577.883      -56475.421        2304.700          42.000  
  25093249.636       97515.588       -3893.924          42.000  
  24963393.823      -41717.484        1636.662          42.000  
 14 12 20  0  0 28.0000000  0 13G23G 2G 3G 1G20G32G 6G28G17G 9G10G11
                                G12
  22475679.195      -13507.833         526.011          42.000  
  24903752.905      -37292.818        1476.105          42.000  
  22014860.686       93865.987       -3605.913          42.000  
  23723841.949       86527.724       -3328.977          42.000  
  21071121.238       82630.563       -3171.915          42.000  
  25656385.874      118085.237       -4539.747          42.000  
  21626948.802      -19733.193         761.758          42.000  
  22514831.533      100067.763       -3845.443          42.000  
  20222470.331        7772.239        -320.036          43.000  
  22727651.073      -51540.438        1991.877          42.000  
  22060139.446      -58779.256        2303.640          42.000  
  25093991.061      101410.807       -3895.486          42.000  
  24963083.262      -43352.753        1635.528          42.000  
 14 12 20  0  0 29.0000000  0 13G23G 2G 3G 1G20G32G 6G28G17G 9G10G11
                                G12
  22475579.450      -14033.983         525.760          42.000  
  24903472.149      -38769.266        1476.105          42.000  
  22015546.968       97471.746       -3606.390          42.000  
  23724475.340       89856.254       -3329.123          42.000  
  21071725.312       85802.533       -3171.872          42.000  
  25657249.730      122624.666       -4540.108          42.000  
  21626804.506      -20495.110         761.748          42.000  
  22515563.779      103913.285       -3845.888          43.000  
  20222531.476        8092.101        -319.659          42.000  
  22727272.125      -53532.590        1991.187          42.000  
  22059701.149      -61083.048        2303.420          42.000  
  25094732.730      105305.803       -3894.929          42.000  
  24962772.264      -44987.885        1634.699          42.000  
 14 12 20  0  0 30.0000000  0 13G23G 2G 3G 1G20G32G 6G28G17G 9G10G11
                                G12
  22475479.896      -14559.694         526.085          42.000  
  24903191.322      -40245.729        1476.316          42.000  
  22016233.582      101077.742       -3605.733          42.000  
  23725108.870       93184.841       -3328.289          42.000  
  21072329.980       88974.843       -3172.084          42.000  
  25658113.917      127164.047       -4539.134          42.000  
  21626658.675      -21256.880         761.666          42.000  
  22516295.013      107759.041       -3845.164          42.000  
  20222592.796        8412.408        -320.069          43.000  
  22726892.949      -55524.498        1992.894          42.000  
  22059262.939      -63386.506        2303.891          42.000  
  25095473.998      109200.819       -3894.352          42.000  
  24962461.179      -46622.606        1634.329          42.000  
 14 12 20  0  0 31.0000000  0 13G23G 2G 3G 1G20G32G 6G28G17G 9G10G11
                                G12
  22475379.540      -15085.362         524.446          42.000  
  24902911.002      -41722.608        1476.723          42.000  
  22016920.160      104683.614       -3606.190          42.000  
  23725742.697       96513.047       -3328.806          42.000  
  21072933.810       92147.131       -3172.876          42.000  
  25658977.738      131702.982       -4540.028          42.000  
  21626514.606      -22018.883         762.349          42.000  
  22517026.684      111604.630       -3846.442          42.000  
  20222654.273        8732.805        -321.561          43.000  
  22726514.017      -57516.583        1991.002          42.000  
  22058824.886      -65690.010        2302.466          42.000  
  25096214.969      113095.498       -3895.275          42.000  
  24962150.408      -48257.309        1633.384          42.000  
 14 12 20  0  0 32.0000000  0 13G23G 2G 3G 1G20G32G 6G28G17G 9G10G11
                                G12
  22475279.777      -15610.160         525.112          42.000  
  24902629.949      -43199.139        1476.930          42.000  
  22017606.635      108290.128       -3606.268          42.000  
  23726376.244       99841.673       -3328.105          42.000  
  21073537.203       95320.146       -3172.457          42.000  
  25659841.663      136242.253       -4538.847          42.000  
  21626370.118      -22780.389         761.860          42.000  
  22517759.401      115450.850       -3845.213          43.000  
  20222715.436        9054.094        -320.937          43.000  
  22726135.051      -59508.045        1991.576          42.000  
  22058387.235      -67992.782        2303.308          42.000  
  25096956.603      116990.605       -3894.378          42.000  
  24961840.544      -49891.214        1634.696          42.000  
 14 12 20  0  0 33.0000000  0 13G23G 2G 3G 1G20G32G 6G28G17G 9G10G11
                                G12
  22475180.573      -16134.769         525.072          42.000  
  24902348.756      -44675.958        1476.333          43.000  
  22018292.847      111896.629       -3606.807          42.000  
  23727009.774      103170.065       -3328.758          42.000  
  21074140.615       98493.241       -3173.428          42.000  
  25660705.554      140781.223       -4539.475          42.000  
  21626225.682      -23541.998         761.578          42.000  
  22518491.088      119297.013       -3846.458          42.000  
  20222776.652        9375.590        -321.312          42.000  
  22725756.364      -61499.509        1990.762          42.000  
  22057949.182      -70295.486        2302.688          42.000  
  25097698.080      120885.488       -3895.322          42.000  
  24961529.442      -51524.964        1633.337          42.000  
 14 12 20  0  0 34.0000000  0 13G23G 2G 3G 1G20G32G 6G28G17G 9G10G11
                                G12
  22475081.002      -16658.640         523.474          42.000  
  24902067.965      -46152.506        1476.703          42.000  
  22018979.513      115503.685       -3607.544          42.000  
  23727643.514      106498.767       -3329.268          42.000  
  21074744.881      101666.956       -3174.231          42.000  
  25661569.636      145320.448       -4539.656          42.000  
  21626081.160      -24303.170         760.901          42.000  
  22519223.439      123143.738       -3847.449          42.000  
  20222837.885        9697.869        -322.833          42.000  
  22725377.677      -63490.455        1990.600          42.000  
  22057511.775      -72597.550        2301.642          42.000  
  25098439.994      124780.703       -3895.634          42.000  
  24961219.090      -53157.993        1632.578          42.000  
 14 12 20  0  0 35.0000000  0 13G23G 2G 3G 1G20G32G 6G28G17G 9G10G11
                                G12
  22474981.309      -17182.131         523.891          42.000  
  24901787.575      -47629.150        1477.662          42.000  
  22019665.533      119110.926       -3606.743          42.000  
  23728277.062      109827.431       -3327.836          42.000  
  21075349.182      104840.954       -3173.635          42.000  
  25662433.649      149859.532       -4539.096          42.000  
  21625936.916      -25064.296         761.142          42.000  
  22519955.720      126990.605       -3845.981          42.000  
  20222899.641       10020.547        -322.320          43.000  
  22724999.007      -65481.253        1990.781          42.000  
  22057073.722      -74899.347        2302.470          42.000  
  25099181.541      128675.889       -3894.649          42.000  
  24960909.122      -54790.709        1632.999          42.000  
 14 12 20  0  0 36.0000000  0 13G23G 2G 3G 1G20G32G 6G28G17G 9G10G11
                                G12
  22474882.366      -17705.560         523.382          42.000  
  24901506.853      -49106.236        1476.591          42.000  
  22020352.147      122718.014       -3608.037          42.000  
  23728910.749      113155.713       -3328.156          42.000  
  21075952.697      108014.902       -3174.419          42.000  
  25663298.394      154398.176       -4538.429          42.000  
  21625792.289      -25825.668         760.960          42.000  
  22520688.053      130837.283       -3847.141          42.000  
  20222961.886       10343.306        -323.428          43.000  
  22724620.948      -67472.220        1990.916          42.000  
  22056635.966      -77201.220        2301.276          42.000  
  25099922.913      132570.707       -3895.158          42.000  
  24960598.421      -56423.396        1632.263          42.000  
 14 12 20  0  0 37.0000000  0 13G23G 2G 3G 1G20G32G 6G28G17G 9G10G11
                                G12
  22474783.127      -18228.511         523.458          42.000  
  24901226.341      -50583.317        1477.315          42.000  
  22021039.476      126325.407       -3606.749          42.000  
  23729544.471      116484.067       -3327.625          42.000  
  21076556.754      111189.242       -3173.913          42.000  
  25664162.599      158936.828       -4537.308          42.000  
  21625646.771      -26586.864         761.649          42.000  
  22521420.561      134684.243       -3846.221          42.000  
  20223023.468       10666.600        -323.068          42.000  
  22724241.981      -69462.904        1991.433          42.000  
  22056198.175      -79502.693        2302.201          42.000  
  25100664.548      136465.612       -3894.413          42.000  
  24960287.842      -58055.630        1632.151          42.000  
 14 12 20  0  0 38.0000000  0 13G23G 2G 3G 1G20G32G 6G28G17G 9G10G11
                                G12
  22474684.114      -18751.392         523.087          42.000  
  24900945.706      -52060.813        1478.683          42.000  
  22021726.718      129932.632       -3607.172          42.000  
  23730177.984      119812.040       -3327.630          42.000  
  21077161.457      114363.498       -3173.457          42.000  
  25665026.158      163474.989       -4537.286          42.000  
  21625501.952      -27348.330         762.260          42.000  
  22522152.842      138531.029       -3846.506          42.000  
  20223084.770       10989.963        -323.047          42.000  
  22723863.765      -71453.770        1992.063          42.000  
  22055760.157      -81804.260        2301.750          42.000  
  25101406.269      140360.152       -3894.045          42.000  
  24959977.594      -59687.862        1632.813          42.000  
 14 12 20  0  0 39.0000000  0 13G23G 2G 3G 1G20G32G 6G28G17G 9G10G11
                                G12
  22474585.381      -19274.068         521.720          42.000  
  24900665.107      -53538.576        1477.741          42.000  
  22022413.646      133539.901       -3608.194          42.000  
  23730811.566      123139.812       -3327.736          42.000  
  21077765.810      117537.875       -3174.906          42.000  
  25665889.595      168012.900       -4537.993          42.000  
  21625358.424      -28109.872         762.031          42.000  
  22522884.739      142377.807       -3846.996          42.000  
  20223146.788       11313.573        -324.678          42.000  
  22723485.515      -73444.619        1990.434          42.000  
  22055322.645      -84105.690        2301.290          42.000  
  25102147.903      144254.505       -3894.719          42.000  
  24959666.457      -61319.898        1631.960          42.000  
 14 12 20  0  0 40.0000000  0 13G23G 2G 3G 1G20G32G 6G28G17G 9G10G11
                                G12
  22474485.915      -19795.988         521.955          42.000  
  24900383.792      -55016.061        1477.528          42.000  
  22023101.010      137147.723       -3607.314          42.000  
  23731445.410      126467.903       -3328.446          42.000  
  21078370.163      120712.915       -3175.485          42.000  
  25666753.729      172551.059       -4537.918          42.000  
  21625213.814      -28870.998         761.373          42.000  
  22523617.613      146225.130       -3847.724          42.000  
  20223208.719       11637.982        -325.112          42.000  
  22723106.688      -75434.950        1990.293          42.000  
  22054885.325      -86406.486        2300.599          42.000  
  25102889.136      148149.196       -3894.537          42.000  
  24959356.349      -62951.228        1631.138          42.000  
 14 12 20  0  0 41.0000000  0 13G23G 2G 3G 1G20G32G 6G28G17G 9G10G11
                                G12
  22474386.361      -20317.596         520.923          42.000  
  24900102.547      -56493.745        1477.156          42.000  
  22023787.659      140755.651       -3608.053          42.000  
  23732078.661      129795.876       -3328.454          42.000  
  21078974.866      123888.138       -3175.250          42.000  
  25667617.585      177089.025       -4537.576          42.000  
  21625069.553      -29632.116         761.634          42.000  
  22524349.859      150072.529       -3847.159          42.000  
  20223270.755       11962.716        -325.144          43.000  
  22722728.437      -77425.193        1990.227          42.000  
  22054447.360      -88707.093        2300.683          42.000  
  25103631.032      152043.780       -3894.180          42.000  
  24959046.032      -64582.306        1631.065          42.000  
 14 12 20  0  0 42.0000000  0 13G23G 2G 3G 1G20G32G 6G28G17G 9G10G11
                                G12
  22474287.401      -20839.161         522.639          42.000  
  24899821.703      -57971.850        1478.467          42.000  
  22024473.993      144363.404       -3607.014          42.000  
  23732712.471      133123.457       -3326.928          42.000  
  21079579.219      127063.275       -3174.451          42.000  
  25668481.353      181626.505       -4536.623          42.000  
  21624925.135      -30393.522         762.392          42.000  
  22525082.420      153919.716       -3846.645          42.000  
  20223333.244       12287.505        -323.957          43.000  
  22722349.627      -79415.623        1990.673          42.000  
  22054009.813      -91007.795        2301.092          42.000  
  25104371.829      155937.972       -3893.636          42.000  
  24958736.325      -66213.376        1631.913          42.000  
 14 12 20  0  0 43.0000000  0 13G23G 2G 3G 1G20G32G 6G28G17G 9G10G11
                                G12
  22474188.004      -21360.313         521.054          42.000  
  24899540.929      -59450.022        1478.187          42.000  
  22025160.607      147971.371       -3608.497          43.000  
  23733345.652      136451.039       -3327.752          42.000  
  21080183.817      130238.734       -3175.510          42.000  
  25669345.139      186163.912       -4538.155          42.000  
  21624780.246      -31154.823         760.801          42.000  
  22525814.840      157767.122       -3847.392          43.000  
  20223395.698       12612.736        -325.790          43.000  
  22721971.167      -81405.840        1990.198          42.000  
  22053572.039      -93308.169        2299.992          42.000  
  25105113.446      159832.181       -3894.402          42.000  
  24958425.711      -67844.068        1630.797          42.000  
 14 12 20  0  0 44.0000000  0 13G23G 2G 3G 1G20G32G 6G28G17G 9G10G11
                                G12
  22474089.184      -21880.855         520.208          42.000  
  24899259.823      -60928.065        1478.107          43.000  
  22025848.215      151579.779       -3608.519          42.000  
  23733978.711      139778.801       -3328.233          43.000  
  21080788.502      133414.695       -3176.647          42.000  
  25670208.785      190701.451       -4537.580          42.000  
  21624635.392      -31915.812         761.047          42.000  
  22526548.011      161614.923       -3847.424          42.000  
  20223457.961       12938.647        -326.205          43.000  
  22721592.881      -83395.673        1989.578          42.000  
  22053134.772      -95608.057        2299.968          42.000  
  25105854.452      163726.622       -3894.144          42.000  
  24958115.726      -69474.183        1630.245          42.000  
 14 12 20  0  0 45.0000000  0 13G23G 2G 3G 1G20G32G 6G28G17G 9G10G11
                                G12
  22473990.293      -22401.588         520.620          42.000  
  24898978.648      -62406.776        1478.790          42.000  
  22026534.847      155187.783       -3608.323          42.000  
  23734612.538      143105.944       -3327.222          42.000  
  21081393.431      136590.367       -3175.631          42.000  
  25671072.274      195238.266       -4536.989          42.000  
  21624490.311      -32677.315         762.170          42.000  
  22527280.222      165462.298       -3847.104          42.000  
  20223520.118       13264.358        -326.477          42.000  
  22721214.089      -85385.929        1989.995          42.000  
  22052697.225      -97908.244        2300.303          42.000  
  25106596.034      167620.406       -3893.250          42.000  
  24957805.932      -71104.533        1630.291          42.000  
 14 12 20  0  0 46.0000000  0 13G23G 2G 3G 1G20G32G 6G28G17G 9G10G11
                                G12
  22473891.578      -22921.932         520.074          42.000  
  24898698.328      -63885.607        1479.157          42.000  
  22027221.844      158795.966       -3607.894          42.000  
  23735246.417      146433.034       -3326.800          43.000  
  21081997.976      139766.286       -3175.681          42.000  
  25671935.746      199774.978       -4536.335          42.000  
  21624345.404      -33438.760         762.317          42.000  
  22528012.660      169309.816       -3847.229          42.000  
  20223582.119       13590.507        -325.876          42.000  
  22720835.664      -87376.006        1990.355          42.000  
  22052259.800     -100208.156        2299.866          42.000  
  25107336.778      171514.189       -3893.779          42.000  
  24957495.789      -72734.556        1630.325          42.000  
 14 12 20  0  0 47.0000000  0 13G23G 2G 3G 1G20G32G 6G28G17G 9G10G11
                                G12
  22473793.507      -23441.900         519.258          42.000  
  24898418.042      -65364.516        1477.745          42.000  
  22027908.493      162404.330       -3609.177          42.000  
  23735879.930      149760.101       -3327.890          42.000  
  21082602.539      142942.488       -3177.343          42.000  
  25672799.479      204311.552       -4537.560          42.000  
  21624200.393      -34200.127         760.707          42.000  
  22528745.569      173157.506       -3848.239          42.000  
  20223644.626       13917.031        -327.546          42.000  
  22720457.239      -89365.922        1989.388          42.000  
  22051822.009     -102507.817        2298.539          42.000  
  25108078.499      175407.927       -3894.070          42.000  
  24957186.275      -74364.225        1628.467          42.000  
 14 12 20  0  0 48.0000000  0 13G23G 2G 3G 1G20G32G 6G28G17G 9G10G11
                                G12
  22473694.931      -23961.365         518.432          42.000  
  24898136.675      -66843.435        1478.017          42.000  
  22028595.211      166013.006       -3608.818          42.000  
  23736513.338      153087.220       -3327.106          42.000  
  21083207.975      146119.084       -3177.328          42.000  
  25673662.812      208848.136       -4537.391          42.000  
  21624055.713      -34961.317         759.832          42.000  
  22529478.304      177005.472       -3848.022          42.000  
  20223706.312       14244.106        -328.688          42.000  
  22720079.843      -91355.573        1989.218          42.000  
  22051385.108     -104807.076        2298.644          42.000  
  25108819.872      179301.762       -3893.994          42.000  
  24956876.498      -75993.437        1628.628          42.000  
 14 12 20  0  0 49.0000000  0 13G23G 2G 3G 1G20G32G 6G28G17G 9G10G11
                                G12
  22473596.372      -24480.383         519.617          42.000  
  24897855.151      -68322.392        1479.376          42.000  
  22029282.296      169621.893       -3609.230          42.000  
  23737146.920      156414.343       -3326.737          42.000  
  21083812.276      149295.985       -3177.403          42.000  
  25674526.999      213384.644       -4535.828          42.000  
  21623911.347      -35722.397         760.535          42.000  
  22530210.812      180853.618       -3848.188          42.000  
  20223769.587       14571.650        -326.997          42.000  
  22719701.243      -93345.004        1989.825          42.000  
  22050947.911     -107106.057        2298.825          42.000  
  25109560.634      183195.589       -3893.684          42.000  
  24956566.705      -77622.254        1629.147          42.000  
 14 12 20  0  0 50.0000000  0 13G23G 2G 3G 1G20G32G 6G28G17G 9G10G11
                                G12
  22473498.529      -24998.901         518.866          42.000  
  24897574.324      -69801.305        1478.721          42.000  
  22029969.067      173231.124       -3609.186          42.000  
  23737780.572      159741.567       -3327.470          42.000  
  21084417.798      152473.315       -3177.417          42.000  
  25675390.383      217921.169       -4537.003          42.000  
  21623766.319      -36483.258         760.485          42.000  
  22530943.093      184702.083       -3848.463          42.000  
  20223831.448       14899.740        -327.722          43.000  
  22719322.870      -95334.128        1989.374          42.000  
  22050511.009     -109404.588        2298.948          42.000  
  25110301.971      187089.558       -3893.754          42.000  
  24956258.255      -79250.586        1628.014          42.000  
 14 12 20  0  0 51.0000000  0 13G23G 2G 3G 1G20G32G 6G28G17G 9G10G11
                                G12
  22473399.918      -25517.140         518.265          42.000  
  24897293.515      -71280.426        1479.665          42.000  
  22030655.576      176840.415       -3609.551          42.000  
  23738414.434      163068.629       -3326.560          42.000  
  21085023.600      155650.793       -3177.497          42.000  
  25676253.523      222457.462       -4536.194          42.000  
  21623621.778      -37244.149         761.179          42.000  
  22531675.426      188550.583       -3848.129          42.000  
  20223895.350       15228.122        -328.313          42.000  
  22718944.322      -97323.217        1989.328          42.000  
  22050074.161     -111702.970        2298.724          42.000  
  25111043.274      190983.360       -3893.260          42.000  
  24955948.723      -80878.689        1627.812          42.000  
 14 12 20  0  0 52.0000000  0 13G23G 2G 3G 1G20G32G 6G28G17G 9G10G11
                                G12
  22473301.446      -26034.805         518.479          42.000  
  24897011.956      -72759.470        1479.273          42.000  
  22031342.085      180450.074       -3609.262          42.000  
  23739047.947      166395.833       -3326.234          42.000  
  21085628.459      158828.733       -3177.179          42.000  
  25677116.855      226993.823       -4535.317          42.000  
  21623477.517      -38004.821         760.540          42.000  
  22532407.620      192399.426       -3848.450          42.000  
  20223958.258       15557.095        -328.603          43.000  
  22718566.193      -99311.954        1988.440          42.000  
  22049636.876     -114000.894        2298.516          42.000  
  25111784.647      194877.316       -3893.003          42.000  
  24955638.493      -82506.266        1627.704          42.000  
 14 12 20  0  0 53.0000000  0 13G23G 2G 3G 1G20G32G 6G28G17G 9G10G11
                                G12
  22473203.358      -26552.221         517.972          42.000  
  24896730.903      -74238.746        1479.507          42.000  
  22032030.025      184059.789       -3609.614          42.000  
  23739680.116      169722.857       -3327.441          42.000  
  21086233.685      162006.811       -3178.099          42.000  
  25677980.990      231529.941       -4536.450          42.000  
  21623333.152      -38765.538         760.840          42.000  
  22533140.267      196248.313       -3849.293          43.000  
  20224020.660       15886.354        -329.097          43.000  
  22718187.838     -101300.634        1988.286          42.000  
  22049199.852     -116298.696        2297.596          42.000  
  25112525.879      198771.127       -3893.697          42.000  
  24955329.397      -84133.630        1627.007          42.000  
 14 12 20  0  0 54.0000000  0 13G23G 2G 3G 1G20G32G 6G28G17G 9G10G11
                                G12
  22473105.620      -27069.168         515.787          42.000  
  24896449.396      -75718.014        1478.272          42.000  
  22032717.092      187669.770       -3611.516          42.000  
  23740313.245      173049.928       -3328.571          42.000  
  21086838.772      165185.265       -3179.765          42.000  
  25678844.113      236066.001       -4537.588          42.000  
  21623189.571      -39526.085         759.451          42.000  
  22533873.612      200097.427       -3850.728          42.000  
  20224083.900       16216.122        -331.320          43.000  
  22717809.709     -103289.071        1987.350          42.000  
  22048762.864     -118596.132        2296.535          42.000  
  25113267.043      202664.988       -3895.153          42.000  
  24955019.865      -85760.567        1625.587          42.000  
 14 12 20  0  0 55.0000000  0 13G23G 2G 3G 1G20G32G 6G28G17G 9G10G11
                                G12
  22473008.335      -27585.657         516.082          42.000  
  24896167.732      -77197.315        1479.942          43.000  
  22033404.404      191280.010       -3610.000          42.000  
  23740947.211      176377.037       -3326.302          43.000  
  21087443.579      168364.060       -3178.279          42.000  
  25679707.584      240602.051       -4535.212          42.000  
  21623045.694      -40286.491         761.572          42.000  
  22534606.783      203946.787       -3848.519          42.000  
  20224147.593       16546.383        -330.224          43.000  
  22717431.842     -105277.271        1988.984          42.000  
  22048325.893     -120893.221        2297.245          42.000  
  25114007.874      206558.912       -3893.153          42.000  
  24954710.892      -87387.059        1626.716          43.000  
 14 12 20  0  0 56.0000000  0 13G23G 2G 3G 1G20G32G 6G28G17G 9G10G11
                                G12
  22472910.736      -28101.793         514.916          42.000  
  24895886.487      -78676.779        1478.874          43.000  
  22034092.117      194890.394       -3610.715          42.000  
  23741580.636      179704.061       -3327.095          42.000  
  21088049.154      171543.077       -3179.257          42.000  
  25680570.812      245137.910       -4536.156          42.000  
  21622901.137      -41046.890         759.740          42.000  
  22535339.396      207796.251       -3850.518          42.000  
  20224210.536       16877.016        -331.221          43.000  
  22717053.992     -107265.365        1987.468          42.000  
  22047889.132     -123190.080        2296.518          42.000  
  25114749.735      210452.748       -3894.016          42.000  
  24954401.447      -89013.276        1625.554          42.000  
 14 12 20  0  0 57.0000000  0 13G23G 2G 3G 1G20G32G 6G28G17G 9G10G11
                                G12
  22472812.456      -28617.357         515.416          42.000  
  24895605.556      -80156.128        1479.287          42.000  
  22034779.900      198501.150       -3611.038          42.000  
  23742213.661      183031.218       -3327.295          42.000  
  21088654.833      174722.547       -3179.663          42.000  
  25681434.266      249673.838       -4535.955          42.000  
  21622756.527      -41807.043         759.960          42.000  
  22536071.781      211646.067       -3849.623          42.000  
  20224273.339       17208.234        -331.191          43.000  
  22716676.160     -109253.099        1987.709          42.000  
  22047452.423     -125486.490        2296.230          42.000  
  25115490.828      214346.721       -3893.751          42.000  
  24954092.246      -90638.954        1625.980          42.000  
 14 12 20  0  0 58.0000000  0 13G23G 2G 3G 1G20G32G 6G28G17G 9G10G11
                                G12
  22472714.857      -29132.950         515.686          43.000  
  24895324.485      -81635.981        1479.885          43.000  
  22035467.002      202111.676       -3610.144          43.000  
  23742847.819      186357.936       -3326.416          42.000  
  21089259.832      177901.890       -3179.350          42.000  
  25682296.918      254209.241       -4535.829          42.000  
  21622611.812      -42567.503         761.065          42.000  
  22536804.324      215495.611       -3849.795          43.000  
  20224336.579       17539.443        -331.755          43.000  
  22716297.997     -111241.066        1987.787          42.000  
  22047015.975     -127783.031        2296.660          42.000  
  25116231.660      218240.279       -3892.993          42.000  
  24953783.674      -92264.701        1625.833          43.000  
 14 12 20  0  0 59.0000000  0 13G23G 2G 3G 1G20G32G 6G28G17G 9G10G11
                                G12
  22472617.607      -29647.839         514.270          42.000  
  24895042.804      -83115.645        1479.356          43.000  
  22036154.715      205722.702       -3610.985          43.000  
  23743480.651      189684.912       -3327.066          42.000  
  21089864.657      181081.827       -3180.133          42.000  
  25683160.232      258744.848       -4535.782          42.000  
  21622467.673      -43327.585         759.814          42.000  
  22537537.181      219345.655       -3850.058          42.000  
  20224400.220       17871.422        -332.952          42.000  
  22715920.723     -113228.549        1987.496          42.000  
  22046579.702     -130078.975        2295.866          42.000  
  25116973.696      222134.119       -3893.709          42.000  
  24953474.561      -93889.773        1624.666          43.000  
 14 12 20  0  1  0.0000000  0 13G23G 2G 3G 1G20G32G 6G28G17G 9G10G11
                                G12
  22472519.938      -30162.356         514.526          42.000  
  24894761.716      -84595.393        1479.816          42.000  
  22036841.730      209333.897       -3611.189          42.000  
  23744114.111      193011.831       -3326.751          42.000  
  21090469.289      184262.028       -3179.968          42.000  
  25684023.617      263280.315       -4535.239          42.000  
  21622322.941      -44087.620         759.993          42.000  
  22538269.532      223195.836       -3850.279          42.000  
  20224463.686       18203.769        -331.968          43.000  
  22715542.490     -115215.903        1987.557          42.000  
  22046142.487     -132374.677        2296.206          42.000  
  25117715.243      226027.909       -3893.718          42.000  
  24953166.704      -95514.520        1624.891          42.000  
 14 12 20  0  1  1.0000000  0 13G23G 2G 3G 1G20G32G 6G28G17G 9G10G11
                                G12
  22472421.658      -30676.316         513.279          42.000  
  24894480.662      -86075.087        1478.448          42.000  
  22037528.693      212945.439       -3612.466          42.000  
  23744747.554      196338.887       -3328.070          42.000  
  21091074.882      187442.643       -3181.314          42.000  
  25684887.106      267815.843       -4535.852          42.000  
  21622178.192      -44847.424         759.080          42.000  
  22539002.179      227046.333       -3851.349          42.000  
  20224526.891       18536.697        -334.130          43.000  
  22715164.361     -117202.895        1986.428          42.000  
  22045706.197     -134669.954        2293.996          42.000  
  25118455.673      229921.835       -3894.970          42.000  
  24952857.888      -97138.756        1623.215          43.000  
 14 12 20  0  1  2.0000000  0 13G23G 2G 3G 1G20G32G 6G28G17G 9G10G11
                                G12
  22472324.164      -31190.132         513.656          42.000  
  24894198.841      -87555.106        1480.165          42.000  
  22038216.424      216556.940       -3611.660          42.000  
  23745380.578      199665.644       -3326.891          43.000  
  21091680.055      190623.311       -3180.510          42.000  
  25685750.490      272351.011       -4535.426          42.000  
  21622034.158      -45607.378         759.814          42.000  
  22539735.577      230896.748       -3850.608          42.000  
  20224590.864       18869.835        -333.258          43.000  
  22714786.302     -119189.990        1986.746          42.000  
  22045269.679     -136965.158        2294.676          42.000  
  25119196.923      233815.501       -3894.147          42.000  
  24952548.478      -98762.885        1623.846          42.000  
 14 12 20  0  1  3.0000000  0 13G23G 2G 3G 1G20G32G 6G28G17G 9G10G11
                                G12
  22472226.460      -31703.817         513.354          42.000  
  24893917.701      -89035.483        1480.013          42.000  
  22038904.049      220168.361       -3610.873          42.000  
  23746013.986      202992.124       -3326.502          42.000  
  21092285.578      193803.998       -3181.147          42.000  
  25686613.944      276885.805       -4534.574          42.000  
  21621889.705      -46367.526         759.896          42.000  
  22540468.643      234747.098       -3850.730          42.000  
  20224654.714       19203.097        -333.582          43.000  
  22714408.156     -121177.143        1986.709          42.000  
  22044833.773     -139260.374        2294.534          42.000  
  25119938.121      237708.889       -3893.578          42.000  
  24952239.627     -100386.914        1623.995          42.000  
 14 12 20  0  1  4.0000000  0 13G23G 2G 3G 1G20G32G 6G28G17G 9G10G11
                                G12
  22472128.757      -32216.685         512.237          43.000  
  24893636.072      -90515.533        1479.547          42.000  
  22039592.024      223780.391       -3612.387          42.000  
  23746647.342      206318.985       -3326.725          43.000  
  21092891.048      196985.375       -3181.879          42.000  
  25687477.660      281420.879       -4535.376          42.000  
  21621745.671      -47127.178         759.264          42.000  
  22541201.360      238597.986       -3850.802          42.000  
  20224718.250       19537.202        -334.848          43.000  
  22714029.887     -123163.726        1986.029          42.000  
  22044397.535     -141554.887        2293.471          42.000  
  25120680.017      241602.671       -3894.596          42.000  
  24951930.479     -102010.184        1622.779          42.000  
 14 12 20  0  1  5.0000000  0 13G23G 2G 3G 1G20G32G 6G28G17G 9G10G11
                                G12
  22472031.384      -32729.304         511.749          42.000  
  24893354.687      -91995.812        1479.651          42.000  
  22040279.929      227392.473       -3612.404          42.000  
  23747280.227      209645.651       -3326.969          42.000  
  21093497.146      200166.886       -3182.694          42.000  
  25688340.068      285955.721       -4535.409          42.000  
  21621600.712      -47886.908         759.067          42.000  
  22541934.444      242448.917       -3850.955          42.000  
  20224782.013       19871.603        -335.122          43.000  
  22713652.334     -125150.269        1985.453          42.000  
  22043961.821     -143849.269        2293.660          42.000  
  25121420.849      245496.276       -3894.003          42.000  
  24951622.255     -103633.245        1622.253          42.000  
 14 12 20  0  1  6.0000000  0 13G23G 2G 3G 1G20G32G 6G28G17G 9G10G11
                                G12
  22471933.576      -33241.604         512.666          42.000  
  24893073.180      -93476.249        1482.098          42.000  
  22040966.962      231004.677       -3611.778          42.000  
  23747913.460      212972.231       -3325.801          42.000  
  21094103.001      203348.619       -3180.366          42.000  
  25689203.679      290490.381       -4534.008          42.000  
  21621456.712      -48646.609         760.122          42.000  
  22542667.353      246299.948       -3849.783          42.000  
  20224846.073       20206.348        -334.371          43.000  
  22713274.851     -127136.702        1987.294          42.000  
  22043525.443     -146143.412        2294.911          42.000  
  25122161.541      249389.802       -3892.802          42.000  
  24951314.521     -105256.014        1623.080          42.000  
 14 12 20  0  1  7.0000000  0 13G23G 2G 3G 1G20G32G 6G28G17G 9G10G11
                                G12
  22471835.767      -33753.775         511.678          42.000  
  24892791.586      -94957.081        1480.661          42.000  
  22041654.378      234616.789       -3612.451          42.000  
  23748546.781      216298.482       -3326.228          42.000  
  21094708.279      206530.354       -3182.103          42.000  
  25690067.517      295024.649       -4534.690          42.000  
  21621313.638      -49406.512         759.460          42.000  
  22543400.873      250150.854       -3851.493          42.000  
  20224910.011       20541.241        -335.495          43.000  
  22712897.263     -129123.245        1986.083          42.000  
  22043089.135     -148437.583        2293.686          42.000  
  25122902.878      253283.033       -3893.436          42.000  
  24951005.704     -106878.712        1622.329          42.000  
 14 12 20  0  1  8.0000000  0 13G23G 2G 3G 1G20G32G 6G28G17G 9G10G11
                                G12
  22471739.006      -34265.291         510.376          42.000  
  24892509.939      -96437.714        1479.932          42.000  
  22042342.004      238229.352       -3613.255          42.000  
  23749179.735      219624.948       -3327.669          42.000  
  21095313.889      209712.637       -3183.057          42.000  
  25690931.023      299559.066       -4535.296          42.000  
  21621168.906      -50166.094         758.604          42.000  
  22544134.864      254002.195       -3852.188          42.000  
  20224974.105       20876.810        -336.928          43.000  
  22712520.269     -131109.357        1984.470          42.000  
  22042652.653     -150731.207        2292.723          42.000  
  25123643.902      257176.499       -3893.608          42.000  
  24950697.533     -108500.789        1620.858          42.000  
 14 12 20  0  1  9.0000000  0 13G23G 2G 3G 1G20G32G 6G28G17G 9G10G11
                                G12
  22471642.681      -34776.420         510.402          43.000  
  24892228.275      -97918.425        1479.990          43.000  
  22043028.723      241842.120       -3613.271          42.000  
  23749812.951      222951.413       -3327.045          42.000  
  21095919.970      212895.194       -3183.219          42.000  
  25691794.024      304093.370       -4535.245          42.000  
  21621024.401      -50925.575         759.298          42.000  
  22544867.407      257853.702       -3851.662          42.000  
  20225038.671       21212.815        -337.108          43.000  
  22712142.489     -133095.286        1985.189          42.000  
  22042215.961     -153024.546        2292.676          42.000  
  25124385.344      261069.940       -3893.828          42.000  
  24950389.066     -110122.508        1621.168          43.000  
 14 12 20  0  1 10.0000000  0 13G23G 2G 3G 1G20G32G 6G28G17G 9G10G11
                                G12
  22471546.286      -35287.020         510.878          42.000  
  24891946.926      -99399.121        1481.176          42.000  
  22043716.680      245455.181       -3613.132          42.000  
  23750445.504      226277.960       -3326.351          42.000  
  21096525.736      216078.150       -3182.779          42.000  
  25692656.553      308627.682       -4534.230          42.000  
  21620880.122      -51684.876         758.980          42.000  
  22545600.490      261705.487       -3851.765          42.000  
  20225103.010       21549.362        -336.517          43.000  
  22711764.919     -135080.898        1985.787          42.000  
  22041779.287     -155317.483        2293.070          42.000  
  25125126.420      264963.481       -3893.502          42.000  
  24950081.087     -111743.762        1621.458          42.000  
 14 12 20  0  1 11.0000000  0 13G23G 2G 3G 1G20G32G 6G28G17G 9G10G11
                                G12
  22471449.908      -35797.196         509.379          42.000  
  24891665.523     -100879.867        1481.042          42.000  
  22044405.754      249068.494       -3613.368          42.000  
  23751079.017      229604.507       -3326.387          42.000  
  21097131.852      219261.436       -3183.751          42.000  
  25693519.257      313161.932       -4534.570          42.000  
  21620735.617      -52444.021         759.209          42.000  
  22546333.818      265557.501       -3851.714          42.000  
  20225167.785       21886.380        -337.706          43.000  
  22711386.842     -137066.321        1985.141          43.000  
  22041342.909     -157610.099        2292.579          42.000  
  25125867.810      268857.048       -3894.263          42.000  
  24949773.021     -113364.594        1620.026          42.000  
 14 12 20  0  1 12.0000000  0 13G23G 2G 3G 1G20G32G 6G28G17G 9G10G11
                                G12
  22471353.496      -36306.864         508.881          42.000  
  24891383.894     -102360.593        1480.504          42.000  
  22045093.677      252682.104       -3614.546          42.000  
  23751712.913      232931.120       -3327.722          42.000  
  21097737.654      222445.111       -3184.397          42.000  
  25694382.380      317696.188       -4534.511          42.000  
  21620591.443      -53203.021         758.203          42.000  
  22547067.094      269409.769       -3853.192          42.000  
  20225232.351       22223.912        -338.595          43.000  
  22711008.626     -139051.450        1983.988          42.000  
  22040906.811     -159902.326        2291.736          42.000  
  25126608.781      272750.717       -3894.130          42.000  
  24949464.449     -114984.984        1619.656          42.000  
 14 12 20  0  1 13.0000000  0 13G23G 2G 3G 1G20G32G 6G28G17G 9G10G11
                                G12
  22471256.281      -36816.136         509.333          42.000  
  24891102.230     -103841.413        1480.934          43.000  
  22045781.093      256295.869       -3614.088          42.000  
  23752346.129      236257.710       -3325.947          42.000  
  21098344.258      225629.050       -3183.705          42.000  
  25695245.485      322230.309       -4533.943          42.000  
  21620447.479      -53961.920         758.983          42.000  
  22547800.701      273262.198       -3852.229          42.000  
  20225297.196       22561.866        -338.175          42.000  
  22710631.370     -141036.401        1985.502          42.000  
  22040471.323     -162194.274        2292.233          42.000  
  25127349.979      276644.327       -3893.567          42.000  
  24949156.435     -116605.015        1620.645          42.000  
 14 12 20  0  1 14.0000000  0 13G23G 2G 3G 1G20G32G 6G28G17G 9G10G11
                                G12
  22471159.310      -37324.874         508.696          42.000  
  24890820.741     -105322.175        1481.273          43.000  
  22046469.050      259910.013       -3613.814          43.000  
  23752979.904      239584.390       -3326.018          43.000  
  21098950.985      228813.424       -3183.794          42.000  
  25696108.695      326764.463       -4533.623          42.000  
  21620303.532      -54720.611         759.005          42.000  
  22548534.326      277114.930       -3852.416          42.000  
  20225362.111       22900.400        -338.424          43.000  
  22710253.817     -143021.041        1985.110          42.000  
  22040034.806     -164485.791        2291.538          42.000  
  25128091.491      280538.083       -3893.202          42.000  
  24948848.945     -118224.549        1620.761          42.000  
 14 12 20  0  1 15.0000000  0 13G23G 2G 3G 1G20G32G 6G28G17G 9G10G11
                                G12
  22471062.112      -37832.718         507.854          43.000  
  24890539.391     -106802.544        1479.760          42.000  
  22047157.130      263524.821       -3615.138          42.000  
  23753613.399      242911.533       -3327.452          42.000  
  21099557.555      231998.553       -3185.794          42.000  
  25696971.329      331298.997       -4535.051          42.000  
  21620159.463      -55478.728         757.283          42.000  
  22549267.933      280968.324       -3853.727          42.000  
  20225426.886       23239.842        -339.999          43.000  
  22709876.247     -145005.014        1983.289          42.000  
  22039599.493     -166776.554        2290.008          42.000  
  25128832.532      284432.298       -3894.915          42.000  
  24948540.948     -119843.238        1618.054          42.000  
 14 12 20  0  1 16.0000000  0 13G23G 2G 3G 1G20G32G 6G28G17G 9G10G11
                                G12
  22470965.909      -38339.756         506.591          42.000  
  24890257.256     -108282.558        1479.915          42.000  
  22047845.873      267140.235       -3615.996          42.000  
  23754247.261      246239.076       -3327.585          42.000  
  21100163.950      235184.405       -3185.845          42.000  
  25697834.487      335833.854       -4535.159          42.000  
  21620015.534      -56236.359         757.214          42.000  
  22550001.313      284822.309       -3854.490          42.000  
  20225491.051       23580.132        -341.027          42.000  
  22709498.956     -146988.388        1983.039          42.000  
  22039164.319     -169066.593        2289.290          42.000  
  25129573.782      288326.925       -3894.871          42.000  
  24948232.655     -121461.147        1617.120          42.000  
 14 12 20  0  1 17.0000000  0 13G23G 2G 3G 1G20G32G 6G28G17G 9G10G11
                                G12
  22470869.427      -38846.587         506.215          42.000  
  24889975.749     -109762.881        1480.229          42.000  
  22048534.231      270755.648       -3616.221          42.000  
  23754880.704      249566.371       -3327.858          42.000  
  21100770.188      238370.326       -3186.543          42.000  
  25698698.081      340368.388       -4534.729          42.000  
  21619871.936      -56994.093         757.594          42.000  
  22550735.112      288676.256       -3854.495          42.000  
  20225556.402       23920.647        -341.187          43.000  
  22709121.856     -148971.795        1982.757          42.000  
  22038728.902     -171356.572        2289.305          42.000  
  25130315.225      292221.322       -3894.588          42.000  
  24947924.851     -123078.922        1616.811          42.000  
 14 12 20  0  1 18.0000000  0 13G23G 2G 3G 1G20G32G 6G28G17G 9G10G11
                                G12
  22470773.904      -39353.201         506.393          42.000  
  24889693.998     -111243.450        1480.989          42.000  
  22049222.695      274371.084       -3615.584          42.000  
  23755514.025      252893.466       -3326.927          42.000  
  21101376.513      241556.368       -3185.872          42.000  
  25699561.517      344902.650       -4534.277          42.000  
  21619727.361      -57751.928         757.938          42.000  
  22551468.754      292530.194       -3853.998          42.000  
  20225621.840       24261.412        -341.306          43.000  
  22708744.670     -150955.162        1983.245          42.000  
  22038293.920     -173646.424        2289.801          42.000  
  25131056.458      296115.541       -3894.041          42.000  
  24947618.041     -124696.467        1617.768          42.000  
 14 12 20  0  1 19.0000000  0 13G23G 2G 3G 1G20G32G 6G28G17G 9G10G11
                                G12
  22470677.422      -39859.533         506.134          42.000  
  24889412.683     -112724.252        1480.852          42.000  
  22049910.757      277986.587       -3615.702          42.000  
  23756147.276      256220.399       -3326.878          42.000  
  21101983.676      244742.549       -3185.557          42.000  
  25700424.256      349436.672       -4533.781          42.000  
  21619583.135      -58509.797         757.434          42.000  
  22552202.937      296384.162       -3853.762          42.000  
  20225686.737       24602.463        -341.460          43.000  
  22708367.885     -152938.509        1983.473          43.000  
  22037858.502     -175936.144        2289.203          42.000  
  25131797.743      300009.592       -3894.088          42.000  
  24947310.254     -126313.808        1617.342          42.000  
 14 12 20  0  1 20.0000000  0 13G23G 2G 3G 1G20G32G 6G28G17G 9G10G11
                                G12
  22470581.254      -40365.355         505.239          42.000  
  24889131.822     -114205.024        1480.350          42.000  
  22050598.836      281602.381       -3616.512          42.000  
  23756780.980      259547.408       -3328.033          42.000  
  21102590.490      247929.128       -3187.116          42.000  
  25701287.466      353970.680       -4534.307          42.000  
  21619439.432      -59267.484         757.023          42.000  
  22552936.300      300238.442       -3854.531          42.000  
  20225751.652       24944.071        -341.964          43.000  
  22707990.454     -154921.559        1982.385          43.000  
  22037422.526     -178225.436        2288.275          42.000  
  25132538.766      303903.755       -3894.551          42.000  
  24947003.043     -127930.689        1616.021          42.000  
 14 12 20  0  1 21.0000000  0 13G23G 2G 3G 1G20G32G 6G28G17G 9G10G11
                                G12
  22470485.365      -40870.579         505.192          42.000  
  24888850.193     -115685.670        1480.288          42.000  
  22051287.701      285218.590       -3616.332          42.000  
  23757414.179      262874.599       -3326.892          42.000  
  21103197.129      251116.214       -3187.339          42.000  
  25702151.095      358504.793       -4534.328          42.000  
  21619295.189      -60024.879         757.321          43.000  
  22553670.378      304093.067       -3854.453          42.000  
  20225817.195       25286.296        -342.880          43.000  
  22707614.245     -156904.218        1982.366          43.000  
  22036986.969     -180514.248        2288.961          42.000  
  25133280.505      307798.100       -3893.811          43.000  
  24946696.076     -129546.991        1616.238          42.000  
 14 12 20  0  1 22.0000000  0 13G23G 2G 3G 1G20G32G 6G28G17G 9G10G11
                                G12
  22470389.668      -41375.467         504.618          43.000  
  24888568.860     -117166.475        1481.006          42.000  
  22051976.601      288834.909       -3616.549          42.000  
  23758048.163      266201.694       -3327.141          42.000  
  21103803.908      254303.495       -3187.658          42.000  
  25703014.409      363038.732       -4534.112          42.000  
  21619151.504      -60782.261         757.737          42.000  
  22554404.212      307947.792       -3854.948          42.000  
  20225882.093       25628.888        -342.734          42.000  
  22707237.128     -158886.760        1982.441          42.000  
  22036551.341     -182802.857        2289.144          42.000  
  25134021.442      311692.362       -3894.396          42.000  
  24946388.813     -131162.989        1615.619          42.000  
 14 12 20  0  1 23.0000000  0 13G23G 2G 3G 1G20G32G 6G28G17G 9G10G11
                                G12
  22470293.552      -41879.887         503.837          42.000  
  24888287.091     -118647.279        1480.835          43.000  
  22052665.117      292451.513       -3616.925          42.000  
  23758681.134      269528.817       -3327.465          42.000  
  21104410.966      257491.120       -3188.351          42.000  
  25703877.113      367572.630       -4534.502          42.000  
  21619007.819      -61539.495         757.471          42.000  
  22555137.994      311802.757       -3855.127          42.000  
  20225947.723       25971.989        -343.451          43.000  
  22706860.203     -160869.043        1982.201          42.000  
  22036116.342     -185091.093        2287.604          42.000  
  25134763.320      315586.669       -3894.331          43.000  
  24946081.515     -132778.573        1614.905          42.000  
 14 12 20  0  1 24.0000000  0 13G23G 2G 3G 1G20G32G 6G28G17G 9G10G11
                                G12
  22470198.902      -42383.518         503.624          42.000  
  24888005.951     -120127.820        1479.901          42.000  
  22053354.051      296068.671       -3616.567          42.000  
  23759314.787      272856.308       -3326.701          42.000  
  21105018.094      260679.436       -3188.348          42.000  
  25704739.416      372106.811       -4533.681          42.000  
  21618864.046      -62296.255         757.065          42.000  
  22555872.282      315658.290       -3855.553          42.000  
  20226013.144       26315.882        -344.490          43.000  
  22706483.593     -162850.789        1981.576          42.000  
  22035681.082     -187378.667        2287.515          42.000  
  25135504.570      319481.346       -3894.296          42.000  
  24945774.670     -134393.425        1614.820          42.000  
 14 12 20  0  1 25.0000000  0 13G23G 2G 3G 1G20G32G 6G28G17G 9G10G11
                                G12
  22470103.711      -42886.842         503.612          42.000  
  24887723.659     -121608.486        1480.829          42.000  
  22054042.427      299685.967       -3617.646          42.000  
  23759948.038      276183.675       -3327.664          42.000  
  21105624.507      263867.943       -3188.307          43.000  
  25705602.538      376640.795       -4533.729          42.000  
  21618719.942      -63053.020         757.026          42.000  
  22556606.430      319513.897       -3855.292          42.000  
  20226079.350       26660.143        -344.504          43.000  
  22706107.192     -164832.422        1981.761          42.000  
  22035246.711     -189666.049        2286.991          43.000  
  25136246.432      323375.925       -3894.614          43.000  
  24945467.721     -136007.975        1614.864          42.000  
 14 12 20  0  1 26.0000000  0 13G23G 2G 3G 1G20G32G 6G28G17G 9G10G11
                                G12
  22470008.573      -43389.557         502.419          43.000  
  24887442.693     -123089.083        1480.642          43.000  
  22054730.734      303303.623       -3618.658          42.000  
  23760581.446      279511.199       -3328.707          42.000  
  21106231.251      267056.931       -3189.911          42.000  
  25706465.033      381174.862       -4534.208          42.000  
  21618576.327      -63809.510         756.254          42.000  
  22557340.177      323369.848       -3856.433          42.000  
  20226145.120       27005.005        -345.849          42.000  
  22705730.023     -166813.681        1980.437          42.000  
  22034811.869     -191952.938        2286.363          42.000  
  25136987.874      327270.676       -3895.618          43.000  
  24945160.544     -137621.982        1613.427          42.000  
 14 12 20  0  1 27.0000000  0 13G23G 2G 3G 1G20G32G 6G28G17G 9G10G11
                                G12
  22469913.172      -43891.369         502.304          43.000  
  24887160.994     -124569.238        1480.375          42.000  
  22055419.267      306921.983       -3618.708          42.000  
  23761215.046      282839.205       -3327.738          42.000  
  21106838.518      270246.696       -3189.948          43.000  
  25707328.033      385709.314       -4534.381          42.000  
  21618432.956      -64565.414         756.545          42.000  
  22558074.429      327226.478       -3857.127          42.000  
  20226211.361       27350.810        -345.649          43.000  
  22705353.517     -168794.251        1980.907          42.000  
  22034377.097     -194239.045        2286.061          42.000  
  25137729.281      331165.923       -3894.516          42.000  
  24944853.787     -139235.134        1613.440          42.000  
 14 12 20  0  1 28.0000000  0 13G23G 2G 3G 1G20G32G 6G28G17G 9G10G11
                                G12
  22469818.313      -44392.926         501.140          43.000  
  24886880.325     -126049.619        1479.468          42.000  
  22056107.382      310540.430       -3618.891          42.000  
  23761848.995      286167.068       -3327.761          42.000  
  21107446.187      273436.614       -3191.242          42.000  
  25708191.313      390243.554       -4534.755          42.000  
  21618289.637      -65321.363         755.708          42.000  
  22558808.351      331083.162       -3857.088          42.000  
  20226278.003       27696.916        -346.593          43.000  
  22704977.273     -170774.768        1979.545          42.000  
  22033942.237     -196524.978        2285.707          42.000  
  25138470.409      335061.021       -3895.281          42.000  
  24944546.698     -140848.033        1612.231          42.000  
 14 12 20  0  1 29.0000000  0 13G23G 2G 3G 1G20G32G 6G28G17G 9G10G11
                                G12
  22469723.488      -44893.887         500.446          43.000  
  24886598.835     -127529.884        1479.148          43.000  
  22056796.735      314159.229       -3619.273          42.000  
  23762481.670      289495.064       -3328.529          42.000  
  21108053.821      276627.027       -3191.354          43.000  
  25709054.837      394777.858       -4535.277          42.000  
  21618146.197      -66077.046         755.242          42.000  
  22559542.132      334940.186       -3858.108          42.000  
  20226343.825       28043.627        -347.182          42.000  
  22704600.208     -172754.922        1979.656          43.000  
  22033507.709     -198810.449        2284.882          42.000  
  25139212.654      338956.299       -3895.293          43.000  
  24944240.499     -142460.398        1611.728          42.000  
 14 12 20  0  1 30.0000000  0 13G23G 2G 3G 1G20G32G 6G28G17G 9G10G11
                                G12
  22469628.332      -45394.776         501.058          43.000  
  24886316.997     -129010.575        1481.017          43.000  
  22057485.268      317777.909       -3618.543          43.000  
  23763115.165      292822.698       -3327.715          42.000  
  21108661.351      279817.362       -3190.694          43.000  
  25709917.803      399311.726       -4533.840          42.000  
  21618002.093      -66832.974         755.647          42.000  
  22560276.926      338797.042       -3857.027          42.000  
  20226410.171       28390.449        -346.349          43.000  
  22704223.755     -174735.226        1980.399          42.000  
  22033073.129     -201095.978        2285.241          42.000  
  25139953.783      342851.195       -3894.962          43.000  
  24943933.759     -144072.738        1612.279          42.000  
 14 12 20  0  1 31.0000000  0 13G23G 2G 3G 1G20G32G 6G28G17G 9G10G11
                                G12
  22469532.513      -45895.272         500.746          43.000  
  24886035.542     -130491.369        1480.980          43.000  
  22058174.255      321396.764       -3618.856          43.000  
  23763749.376      296150.303       -3327.261          43.000  
  21109268.706      283007.986       -3190.558          43.000  
  25710780.716      403845.475       -4533.085          42.000  
  21617857.937      -67588.837         756.012          42.000  
  22561011.249      342654.078       -3856.681          42.000  
  20226476.691       28737.668        -347.122          43.000  
  22703847.371     -176715.359        1980.683          43.000  
  22032638.304     -203381.223        2285.360          42.000  
  25140695.190      346746.090       -3894.557          42.000  
  24943627.176     -145684.717        1612.412          42.000  
 14 12 20  0  1 32.0000000  0 13G23G 2G 3G 1G20G32G 6G28G17G 9G10G11
                                G12
  22469437.916      -46395.127         499.112          43.000  
  24885754.175     -131972.001        1479.940          42.000  
  22058863.207      325016.052       -3619.901          43.000  
  23764382.993      299478.123       -3328.502          42.000  
  21109875.781      286199.134       -3191.757          42.000  
  25711643.926      408379.346       -4534.481          42.000  
  21617715.054      -68344.362         755.353          42.000  
  22561745.554      346511.497       -3858.224          42.000  
  20226543.054       29085.577        -348.381          43.000  
  22703470.917     -178695.041        1978.925          43.000  
  22032203.777     -205665.927        2283.860          42.000  
  25141436.371      350641.209       -3895.455          42.000  
  24943321.065     -147296.100        1610.428          42.000  
 14 12 20  0  1 33.0000000  0 13G23G 2G 3G 1G20G32G 6G28G17G 9G10G11
                                G12
  22469342.428      -46894.228         498.551          43.000  
  24885472.476     -133452.352        1480.562          42.000  
  22059552.753      328635.901       -3620.154          42.000  
  23765015.947      302806.253       -3328.615          42.000  
  21110483.799      289390.906       -3191.993          42.000  
  25712507.450      412913.469       -4534.187          42.000  
  21617571.264      -69099.457         754.583          42.000  
  22562479.388      350369.441       -3858.406          42.000  
  20226610.063       29434.257        -349.380          43.000  
  22703094.551     -180674.220        1979.465          43.000  
  22031769.074     -207950.004        2283.705          43.000  
  25142177.865      354536.663       -3895.732          42.000  
  24943015.197     -148906.760        1610.861          42.000  
 14 12 20  0  1 34.0000000  0 13G23G 2G 3G 1G20G32G 6G28G17G 9G10G11
                                G12
  22469247.359      -47393.071         498.214          42.000  
  24885191.179     -134932.949        1480.848          43.000  
  22060241.652      332255.774       -3620.282          42.000  
  23765649.443      306134.206       -3327.555          42.000  
  21111091.189      292582.813       -3191.806          42.000  
  25713369.979      417447.330       -4534.166          42.000  
  21617427.719      -69854.635         754.786          42.000  
  22563213.431      354227.409       -3857.405          42.000  
  20226676.915       29783.229        -349.286          43.000  
  22702718.098     -182653.362        1978.324          43.000  
  22031334.860     -210233.944        2284.176          42.000  
  25142919.220      358431.940       -3895.575          43.000  
  24942709.417     -150517.211        1610.233          42.000  
 14 12 20  0  1 35.0000000  0 13G23G 2G 3G 1G20G32G 6G28G17G 9G10G11
                                G12
  22469152.674      -47891.670         497.823          42.000  
  24884909.253     -136413.791        1479.907          42.000  
  22060930.744      335875.700       -3620.426          42.000  
  23766283.095      309461.969       -3328.905          42.000  
  21111698.596      295774.863       -3192.562          42.000  
  25714232.962      421980.925       -4533.827          42.000  
  21617284.505      -70609.862         754.511          42.000  
  22563947.387      358085.387       -3858.566          42.000  
  20226742.894       30132.454        -350.385          43.000  
  22702342.150     -184632.464        1978.269          42.000  
  22030901.066     -212517.752        2283.086          42.000  
  25143660.523      362327.056       -3895.669          42.000  
  24942402.764     -152127.478        1609.212          42.000  
 14 12 20  0  1 36.0000000  0 13G23G 2G 3G 1G20G32G 6G28G17G 9G10G11
                                G12
  22469058.757      -48389.815         497.800          42.000  
  24884627.816     -137894.662        1480.917          42.000  
  22061619.609      339495.866       -3620.164          42.000  
  23766916.485      312789.765       -3327.175          42.000  
  21112305.776      298967.238       -3193.118          42.000  
  25715096.434      426514.473       -4533.511          42.000  
  21617141.623      -71364.967         755.531          42.000  
  22564681.710      361943.586       -3857.855          42.000  
  20226809.606       30482.172        -350.033          42.000  
  22701965.644     -186611.343        1978.723          42.000  
  22030466.904     -214801.221        2283.561          42.000  
  25144402.297      366222.202       -3894.978          42.000  
  24942096.740     -153737.303        1609.615          42.000  
 14 12 20  0  1 37.0000000  0 13G23G 2G 3G 1G20G32G 6G28G17G 9G10G11
                                G12
  22468964.701      -48887.244         496.462          42.000  
  24884346.396     -139375.289        1480.410          42.000  
  22062309.416      343116.553       -3621.670          42.000  
  23767549.649      316117.866       -3327.925          42.000  
  21112913.707      302160.221       -3193.196          42.000  
  25715959.138      431048.235       -4533.796          42.000  
  21616998.758      -72119.654         754.450          42.000  
  22565416.329      365802.278       -3858.682          42.000  
  20226877.069       30832.646        -350.305          42.000  
  22701589.313     -188589.692        1978.052          42.000  
  22030032.359     -217084.064        2282.316          42.000  
  25145144.367      370117.659       -3895.431          42.000  
  24941790.611     -155346.451        1608.439          42.000  
 14 12 20  0  1 38.0000000  0 13G23G 2G 3G 1G20G32G 6G28G17G 9G10G11
                                G12
  22468870.434      -49384.214         496.674          42.000  
  24884064.889     -140855.966        1480.786          42.000  
  22062997.984      346737.475       -3620.972          42.000  
  23768183.930      319445.934       -3328.657          42.000  
  21113521.708      305353.534       -3193.654          42.000  
  25716822.470      435581.914       -4533.287          42.000  
  21616855.073      -72874.228         754.827          42.000  
  22566150.373      369661.178       -3859.084          42.000  
  20226943.624       31183.582        -351.068          42.000  
  22701213.016     -190567.842        1978.208          42.000  
  22029598.162     -219366.608        2282.613          42.000  
  25145885.269      374013.146       -3894.970          42.000  
  24941485.197     -156955.191        1609.061          42.000  
 14 12 20  0  1 39.0000000  0 13G23G 2G 3G 1G20G32G 6G28G17G 9G10G11
                                G12
  22468776.221      -49880.771         496.095          42.000  
  24883784.290     -142336.704        1480.856          42.000  
  22063687.966      350358.619       -3620.868          42.000  
  23768818.175      322774.044       -3328.034          43.000  
  21114129.568      308547.153       -3193.828          42.000  
  25717684.947      440115.534       -4533.746          42.000  
  21616711.806      -73628.677         754.640          42.000  
  22566885.201      373520.248       -3859.634          42.000  
  20227011.191       31534.990        -351.456          43.000  
  22700836.720     -192545.754        1977.898          43.000  
  22029164.053     -221648.826        2282.161          42.000  
  25146626.589      377908.634       -3895.253          42.000  
  24941179.522     -158563.548        1608.231          43.000  
 14 12 20  0  1 40.0000000  0 13G23G 2G 3G 1G20G32G 6G28G17G 9G10G11
                                G12
  22468682.513      -50377.240         495.786          43.000  
  24883503.289     -143817.859        1481.004          43.000  
  22064377.371      353979.615       -3621.269          43.000  
  23769451.287      326101.774       -3328.008          43.000  
  21114737.150      311740.719       -3194.399          43.000  
  25718547.651      444648.690       -4533.679          43.000  
  21616568.523      -74383.404         753.720          42.000  
  22567619.524      377379.176       -3859.572          43.000  
  20227078.549       31886.481        -352.285          43.000  
  22700460.493     -194523.851        1977.597          43.000  
  22028730.346     -223931.086        2281.855          43.000  
  25147368.241      381803.761       -3895.504          43.000  
  24940874.317     -160171.869        1607.866          42.000  
 14 12 20  0  1 41.0000000  0 13G23G 2G 3G 1G20G32G 6G28G17G 9G10G11
                                G12
  22468588.596      -50873.209         495.771          43.000  
  24883222.183     -145298.978        1480.909          43.000  
  22065067.039      357600.929       -3621.836          43.000  
  23770084.520      329429.598       -3327.643          43.000  
  21115345.604      314934.686       -3193.392          43.000  
  25719410.739      449181.874       -4533.078          43.000  
  21616425.309      -75137.890         754.875          43.000  
  22568354.091      381238.380       -3859.369          43.000  
  20227145.628       32238.525        -352.267          43.000  
  22700084.877     -196501.621        1977.256          43.000  
  22028296.411     -226212.939        2281.542          43.000  
  25148109.578      385699.002       -3895.289          43.000  
  24940568.729     -161779.724        1607.800          43.000  
 14 12 20  0  1 42.0000000  0 13G23G 2G 3G 1G20G32G 6G28G17G 9G10G11
                                G12
  22468494.435      -51368.526         495.548          43.000  
  24882940.467     -146779.948        1481.103          43.000  
  22065756.270      361222.661       -3621.394          43.000  
  23770718.277      332757.618       -3327.933          43.000  
  21115954.460      318129.177       -3194.138          43.000  
  25720273.809      453715.175       -4532.574          43.000  
  21616282.496      -75892.084         754.013          43.000  
  22569089.234      385097.986       -3859.431          43.000  
  20227212.794       32591.239        -351.610          43.000  
  22699708.633     -198478.977        1977.476          43.000  
  22027862.372     -228494.276        2281.336          43.000  
  25148851.370      389594.459       -3895.613          43.000  
  24940262.425     -163386.978        1606.932          43.000  
 14 12 20  0  1 43.0000000  0 13G23G 2G 3G 1G20G32G 6G28G17G 9G10G11
                                G12
  22468400.395      -51863.646         493.850          43.000  
  24882658.960     -148261.182        1481.518          43.000  
  22066446.095      364844.410       -3621.835          43.000  
  23771352.401      336085.419       -3328.373          42.000  
  21116562.582      321323.740       -3194.903          42.000  
  25721136.391      458248.177       -4533.399          43.000  
  21616139.387      -76646.394         753.952          42.000  
  22569824.167      388957.573       -3859.986          42.000  
  20227280.413       32944.188        -353.153          43.000  
  22699332.651     -200456.353        1976.737          42.000  
  22027428.943     -230775.517        2280.487          42.000  
  25149592.882      393489.722       -3895.291          42.000  
  24939956.558     -164994.045        1606.784          42.000  
 14 12 20  0  1 44.0000000  0 13G23G 2G 3G 1G20G32G 6G28G17G 9G10G11
                                G12
  22468306.688      -52357.852         493.959          42.000  
  24882376.598     -149742.039        1480.667          43.000  
  22067136.076      368466.826       -3622.418          43.000  
  23771986.419      339413.682       -3328.054          43.000  
  21117170.304      324519.084       -3195.713          42.000  
  25721999.548      462781.545       -4533.340          43.000  
  21615996.278      -77400.124         753.162          42.000  
  22570558.978      392817.797       -3861.091          42.000  
  20227347.981       33298.034        -354.874          43.000  
  22698956.389     -202433.043        1976.640          42.000  
  22026995.637     -233055.964        2280.615          42.000  
  25150334.621      397385.435       -3895.497          42.000  
  24939651.877     -166600.271        1606.519          42.000  
 14 12 20  0  1 45.0000000  0 13G23G 2G 3G 1G20G32G 6G28G17G 9G10G11
                                G12
  22468212.334      -52851.587         494.397          43.000  
  24882094.062     -151222.873        1482.577          43.000  
  22067825.691      372089.530       -3621.457          42.000  
  23772619.147      342741.993       -3327.396          42.000  
  21117778.479      327714.801       -3194.732          43.000  
  25722862.392      467314.908       -4532.121          43.000  
  21615853.168      -78153.679         754.955          42.000  
  22571293.824      396678.288       -3859.467          43.000  
  20227416.054       33652.429        -353.539          43.000  
  22698580.878     -204409.467        1977.469          43.000  
  22026562.296     -235336.060        2281.051          42.000  
  25151076.848      401281.233       -3894.638          43.000  
  24939346.306     -168206.055        1606.521          43.000  
 14 12 20  0  1 46.0000000  0 13G23G 2G 3G 1G20G32G 6G28G17G 9G10G11
                                G12
  22468118.557      -53344.937         493.572          42.000  
  24881812.869     -152703.832        1480.695          43.000  
  22068515.376      375712.390       -3622.648          43.000  
  23773252.851      346070.252       -3328.322          42.000  
  21118387.474      330910.769       -3196.318          42.000  
  25723724.851      471848.107       -4533.688          42.000  
  21615710.670      -78907.184         752.959          43.000  
  22572028.653      400538.900       -3861.069          43.000  
  20227483.621       34007.190        -354.689          43.000  
  22698205.122     -206385.745        1976.321          43.000  
  22026128.414     -237615.885        2280.138          43.000  
  25151818.098      405176.973       -3895.959          42.000  
  24939040.928     -169811.512        1604.836          43.000  
 14 12 20  0  1 47.0000000  0 13G23G 2G 3G 1G20G32G 6G28G17G 9G10G11
                                G12
  22468025.565      -53837.363         492.224          42.000  
  24881531.030     -154184.344        1480.246          43.000  
  22069205.410      379335.984       -3624.099          42.000  
  23773886.434      349399.025       -3328.819          43.000  
  21118996.260      334107.553       -3197.819          42.000  
  25724588.079      476381.764       -4534.007          43.000  
  21615567.264      -79660.076         752.528          42.000  
  22572763.586      404400.238       -3861.736          43.000  
  20227551.136       34362.945        -356.203          43.000  
  22697829.280     -208361.292        1975.261          43.000  
  22025695.439     -239894.889        2278.726          42.000  
  25152559.506      409073.238       -3896.654          42.000  
  24938735.723     -171416.038        1603.656          42.000  
 14 12 20  0  1 48.0000000  0 13G23G 2G 3G 1G20G32G 6G28G17G 9G10G11
                                G12
  22467932.764      -54329.430         492.280          42.000  
  24881249.837     -155664.990        1480.535          43.000  
  22069894.537      382959.708       -3623.766          42.000  
  23774520.243      352727.703       -3327.822          42.000  
  21119604.400      337304.572       -3197.367          42.000  
  25725450.067      480915.241       -4533.535          43.000  
  21615424.085      -80412.932         752.913          42.000  
  22573498.415      408261.679       -3861.307          43.000  
  20227619.244       34719.062        -356.655          43.000  
  22697453.681     -210336.700        1975.587          43.000  
  22025262.097     -242173.664        2278.700          42.000  
  25153301.803      412969.424       -3896.254          42.000  
  24938430.205     -173020.285        1604.311          43.000  
 14 12 20  0  1 49.0000000  0 13G23G 2G 3G 1G20G32G 6G28G17G 9G10G11
                                G12
  22467839.127      -54821.222         491.395          42.000  
  24880968.226     -157145.807        1480.909          43.000  
  22070584.344      386583.523       -3623.867          42.000  
  23775154.088      356056.234       -3328.424          42.000  
  21120213.360      340501.753       -3197.556          43.000  
  25726313.137      485448.500       -4533.108          43.000  
  21615280.714      -81165.816         752.403          43.000  
  22574233.820      412123.161       -3861.784          43.000  
  20227687.091       35075.502        -356.731          43.000  
  22697078.135     -212312.048        1975.052          42.000  
  22024829.000     -244452.258        2278.263          42.000  
  25154043.158      416865.490       -3896.496          43.000  
  24938125.158     -174624.272        1603.557          43.000  
 14 12 20  0  1 50.0000000  0 13G23G 2G 3G 1G20G32G 6G28G17G 9G10G11
                                G12
  22467746.309      -55312.808         491.505          43.000  
  24880686.632     -158626.965        1480.453          43.000  
  22071274.483      390207.319       -3624.052          42.000  
  23775787.339      359384.545       -3328.206          42.000  
  21120821.936      343699.000       -3197.087          42.000  
  25727176.679      489981.443       -4533.715          42.000  
  21615137.151      -81918.828         752.616          42.000  
  22574969.085      415984.602       -3862.021          43.000  
  20227755.059       35432.164        -356.791          43.000  
  22696702.641     -214287.420        1975.132          43.000  
  22024395.048     -246730.782        2278.361          42.000  
  25154785.246      420761.328       -3895.923          42.000  
  24937820.006     -176228.106        1604.265          42.000  
 14 12 20  0  1 51.0000000  0 13G23G 2G 3G 1G20G32G 6G28G17G 9G10G11
                                G12
  22467653.125      -55803.703         490.499          42.000  
  24880405.055     -160107.918        1481.732          43.000  
  22071964.499      393831.567       -3624.737          42.000  
  23776420.904      362713.061       -3329.142          43.000  
  21121431.019      346896.805       -3197.946          43.000  
  25728039.592      494514.542       -4533.458          42.000  
  21614994.077      -82671.489         752.355          42.000  
  22575704.594      419846.477       -3862.200          43.000  
  20227823.464       35789.524        -357.804          43.000  
  22696326.973     -216262.324        1974.751          43.000  
  22023961.428     -249008.738        2278.026          42.000  
  25155526.078      424657.417       -3896.311          42.000  
  24937515.622     -177831.312        1602.956          42.000  
 14 12 20  0  1 52.0000000  0 13G23G 2G 3G 1G20G32G 6G28G17G 9G10G11
                                G12
  22467560.115      -56294.326         491.749          42.000  
  24880123.565     -161589.053        1482.171          43.000  
  22072654.167      397455.921       -3623.280          42.000  
  23777054.434      366041.472       -3327.506          43.000  
  21122039.839      350094.806       -3197.123          42.000  
  25728902.732      499047.424       -4532.035          43.000  
  21614851.788      -83424.159         753.017          42.000  
  22576439.649      423708.425       -3861.004          42.000  
  20227892.218       36147.215        -357.121          43.000  
  22695950.956     -218237.162        1975.499          42.000  
  22023528.209     -251286.514        2278.321          43.000  
  25156267.939      428553.401       -3895.026          42.000  
  24937210.853     -179434.241        1604.095          42.000  
 14 12 20  0  1 53.0000000  0 13G23G 2G 3G 1G20G32G 6G28G17G 9G10G11
                                G12
  22467466.844      -56784.469         489.739          42.000  
  24879842.059     -163070.199        1480.773          43.000  
  22073344.986      401080.530       -3624.696          42.000  
  23777687.999      369369.921       -3328.147          43.000  
  21122649.026      353293.140       -3198.161          42.000  
  25729765.785      503580.280       -4532.458          43.000  
  21614709.010      -84176.690         752.497          42.000  
  22577176.031      427570.608       -3861.652          43.000  
  20227961.042       36505.390        -358.941          43.000  
  22695575.444     -220211.731        1974.818          43.000  
  22023095.077     -253563.936        2277.197          42.000  
  25157009.817      432449.420       -3896.193          42.000  
  24936906.347     -181036.762        1602.476          42.000  
 14 12 20  0  1 54.0000000  0 13G23G 2G 3G 1G20G32G 6G28G17G 9G10G11
                                G12
  22467374.305      -57274.258         489.231          42.000  
  24879559.697     -164551.495        1482.063          42.000  
  22074035.142      404705.277       -3624.359          42.000  
  23778321.337      372698.270       -3328.119          43.000  
  21123258.022      356491.699       -3198.034          42.000  
  25730628.855      508112.948       -4532.242          42.000  
  21614565.918      -84929.177         752.562          42.000  
  22577910.703      431432.874       -3862.182          42.000  
  20228029.796       36863.963        -358.581          42.000  
  22695200.177     -222186.189        1974.765          42.000  
  22022662.469     -255841.127        2277.345          42.000  
  25157751.487      436345.371       -3895.750          42.000  
  24936601.649     -182638.964        1601.722          42.000  
 14 12 20  0  1 55.0000000  0 13G23G 2G 3G 1G20G32G 6G28G17G 9G10G11
                                G12
  22467281.348      -57763.620         489.177          42.000  
  24879278.329     -166032.864        1481.417          42.000  
  22074725.036      408330.221       -3625.699          42.000  
  23778954.675      376026.619       -3328.156          43.000  
  21123866.633      359690.557       -3198.683          42.000  
  25731491.228      512645.540       -4532.447          42.000  
  21614423.367      -85681.593         752.028          42.000  
  22578645.636      435295.347       -3862.557          43.000  
  20228097.921       37222.969        -359.583          43.000  
  22694824.893     -224160.431        1974.414          42.000  
  22022229.127     -258118.005        2276.204          43.000  
  25158493.662      440241.323       -3895.993          42.000  
  24936296.776     -184240.784        1601.593          42.000  
 14 12 20  0  1 56.0000000  0 13G23G 2G 3G 1G20G32G 6G28G17G 9G10G11
                                G12
  22467188.757      -58252.295         488.600          42.000  
  24878996.962     -167514.041        1480.396          42.000  
  22075415.559      411955.672       -3625.612          42.000  
  23779589.340      379355.226       -3329.085          42.000  
  21124475.994      362889.993       -3200.076          43.000  
  25732353.617      517178.298       -4533.392          42.000  
  21614280.502      -86433.613         751.678          42.000  
  22579380.849      439158.278       -3863.473          43.000  
  20228166.919       37582.698        -360.414          43.000  
  22694449.364     -226134.204        1972.882          42.000  
  22021796.030     -260394.290        2276.185          42.000  
  25159235.156      444137.550       -3896.197          42.000  
  24935993.299     -185841.941        1600.668          42.000  
 14 12 20  0  1 57.0000000  0 13G23G 2G 3G 1G20G32G 6G28G17G 9G10G11
                                G12
  22467095.678      -58740.643         489.137          42.000  
  24878715.054     -168995.345        1481.924          42.000  
  22076106.012      415581.221       -3625.055          42.000  
  23780222.608      382683.732       -3327.762          43.000  
  21125085.234      366089.625       -3199.781          43.000  
  25733216.583      521710.885       -4532.337          42.000  
  21614137.271      -87185.625         752.792          42.000  
  22580116.271      443021.294       -3862.315          42.000  
  20228235.307       37942.783        -359.984          43.000  
  22694074.132     -228107.863        1974.063          42.000  
  22021363.160     -262670.384        2276.318          42.000  
  25159977.122      448033.679       -3895.633          42.000  
  24935688.950     -187442.805        1601.259          42.000  
 14 12 20  0  1 58.0000000  0 13G23G 2G 3G 1G20G32G 6G28G17G 9G10G11
                                G12
  22467003.785      -59228.420         487.519          43.000  
  24878433.198     -170476.565        1482.148          43.000  
  22076795.871      419207.138       -3625.499          42.000  
  23780855.964      386012.368       -3328.763          42.000  
  21125694.386      369289.728       -3199.722          42.000  
  25734079.252      526243.539       -4532.097          43.000  
  21613994.040      -87937.384         752.072          42.000  
  22580851.501      446884.641       -3863.189          43.000  
  20228304.008       38303.470        -360.988          43.000  
  22693698.970     -230081.153        1973.383          42.000  
  22020930.255     -264946.013        2275.579          42.000  
  25160718.024      451929.966       -3895.837          42.000  
  24935384.741     -189043.162        1600.580          42.000  
 14 12 20  0  1 59.0000000  0 13G23G 2G 3G 1G20G32G 6G28G17G 9G10G11
                                G12
  22466910.932      -59715.810         487.740          42.000  
  24878151.290     -171957.940        1481.573          43.000  
  22077486.394      422833.204       -3625.742          43.000  
  23781490.314      389340.950       -3328.408          43.000  
  21126303.748      372490.051       -3200.541          43.000  
  25734942.340      530776.036       -4531.620          42.000  
  21613851.332      -88689.112         751.923          42.000  
  22581587.097      450748.116       -3863.073          42.000  
  20228373.303       38664.564        -361.073          43.000  
  22693323.616     -232054.306        1973.562          43.000  
  22020497.891     -267221.383        2275.958          42.000  
  25161459.588      455826.209       -3895.653          43.000  
  24935080.688     -190643.167        1600.219          43.000  
 14 12 20  0  2  0.0000000  0 13G23G 2G 3G 1G20G32G 6G28G17G 9G10G11
                                G12
  22466818.620      -60203.002         486.560          43.000  
  24877869.695     -173439.520        1481.386          43.000  
  22078176.183      426459.304       -3626.832          43.000  
  23782123.966      392669.347       -3328.269          43.000  
  21126912.551      375690.517       -3200.802          43.000  
  25735804.939      535308.236       -4532.249          42.000  
  21613708.153      -89440.903         751.442          42.000  
  22582322.379      454611.595       -3863.704          43.000  
  20228441.673       39025.909        -361.720          43.000  
  22692948.227     -234027.430        1973.395          42.000  
  22020065.318     -269496.643        2275.058          42.000  
  25162201.868      459722.262       -3895.946          42.000  
  24934775.676     -192242.987        1599.355          43.000  
 14 12 20  0  2  1.0000000  0 13G23G 2G 3G 1G20G32G 6G28G17G 9G10G11
                                G12
  22466726.204      -60689.114         486.595          43.000  
  24877587.822     -174920.584        1481.310          43.000  
  22078866.968      430086.228       -3626.451          42.000  
  23782757.706      395998.311       -3328.487          43.000  
  21127522.296      378891.874       -3201.236          43.000  
  25736667.730      539840.990       -4532.737          42.000  
  21613565.200      -90191.986         751.114          42.000  
  22583058.569      458475.861       -3864.240          42.000  
  20228510.724       39388.313        -361.669          43.000  
  22692572.733     -235999.742        1972.364          42.000  
  22019633.582     -271770.983        2274.260          42.000  
  25162943.799      463618.930       -3896.761          42.000  
  24934471.134     -193841.807        1599.293          43.000  
 14 12 20  0  2  2.0000000  0 13G23G 2G 3G 1G20G32G 6G28G17G 9G10G11
                                G12
  22466634.573      -61174.840         484.848          43.000  
  24877306.961     -176401.705        1481.028          43.000  
  22079557.403      433713.375       -3627.203          42.000  
  23783391.376      399327.290       -3329.582          42.000  
  21128131.833      382093.546       -3202.020          42.000  
  25737530.329      544373.648       -4533.222          42.000  
  21613421.969      -90942.960         750.368          42.000  
  22583794.654      462340.316       -3864.948          42.000  
  20228580.053       39751.181        -363.608          43.000  
  22692198.286     -237971.850        1971.721          42.000  
  22019200.904     -274044.986        2273.840          42.000  
  25163684.979      467515.603       -3896.701          42.000  
  24934166.297     -195440.238        1597.335          43.000  
 14 12 20  0  2  3.0000000  0 13G23G 2G 3G 1G20G32G 6G28G17G 9G10G11
                                G12
  22466541.459      -61659.591         484.820          42.000  
  24877025.873     -177882.365        1480.777          42.000  
  22080247.891      437341.239       -3627.974          42.000  
  23784025.674      402656.798       -3328.730          43.000  
  21128741.456      385296.037       -3202.730          42.000  
  25738393.260      548906.739       -4532.067          42.000  
  21613279.331      -91693.304         750.134          42.000  
  22584530.792      466205.494       -3865.335          42.000  
  20228650.151       40115.016        -363.928          43.000  
  22691823.421     -239943.228        1971.320          42.000  
  22018768.383     -276318.181        2272.842          42.000  
  25164426.108      471412.806       -3897.179          42.000  
  24933862.994     -197037.757        1597.070          43.000  
 14 12 20  0  2  4.0000000  0 13G23G 2G 3G 1G20G32G 6G28G17G 9G10G11
                                G12
  22466449.740      -62143.595         483.526          43.000  
  24876744.121     -179362.761        1480.833          42.000  
  22080938.169      440969.645       -3628.507          42.000  
  23784659.710      405986.596       -3329.383          43.000  
  21129351.969      388499.159       -3202.894          43.000  
  25739256.348      553440.067       -4532.968          43.000  
  21613137.356      -92443.222         750.054          42.000  
  22585265.847      470071.167       -3864.943          42.000  
  20228719.969       40479.642        -364.928          43.000  
  22691449.148     -241914.063        1970.961          42.000  
  22018336.595     -278590.729        2272.073          43.000  
  25165167.934      475310.340       -3896.978          42.000  
  24933559.779     -198634.576        1597.006          42.000  
 14 12 20  0  2  5.0000000  0 13G23G 2G 3G 1G20G32G 6G28G17G 9G10G11
                                G12
  22466357.865      -62627.802         484.978          43.000  
  24876462.981     -180843.869        1482.118          43.000  
  22081629.006      444597.633       -3627.352          42.000  
  23785293.449      409315.756       -3328.475          42.000  
  21129961.872      391701.953       -3202.150          43.000  
  25740118.685      557972.662       -4531.971          43.000  
  21612994.980      -93193.677         751.544          42.000  
  22586001.374      473936.383       -3864.590          42.000  
  20228789.822       40844.064        -363.307          43.000  
  22691074.422     -243885.331        1972.071          42.000  
  22017904.143     -280863.604        2273.460          43.000  
  25165909.760      479207.228       -3896.328          42.000  
  24933255.779     -200231.636        1597.854          43.000  
 14 12 20  0  2  6.0000000  0 13G23G 2G 3G 1G20G32G 6G28G17G 9G10G11
                                G12
  22466266.321      -63111.387         483.121          42.000  
  24876181.579     -182324.807        1480.700          43.000  
  22082320.156      448226.045       -3628.961          42.000  
  23785927.032      412645.121       -3329.764          42.000  
  21130571.652      394905.255       -3203.329          42.000  
  25740982.104      562505.379       -4533.396          43.000  
  21612852.726      -93943.809         749.957          42.000  
  22586737.442      477802.012       -3866.250          42.000  
  20228859.396       41209.170        -365.740          43.000  
  22690699.068     -245856.163        1970.694          42.000  
  22017471.465     -283135.956        2273.112          42.000  
  25166651.813      483104.364       -3897.326          42.000  
  24932952.390     -201828.100        1596.320          42.000  
 14 12 20  0  2  7.0000000  0 13G23G 2G 3G 1G20G32G 6G28G17G 9G10G11
                                G12
  22466174.847      -63594.457         482.335          43.000  
  24875899.601     -183805.741        1480.547          43.000  
  22083010.749      451854.729       -3630.055          42.000  
  23786560.911      415974.552       -3330.281          42.000  
  21131180.996      398108.915       -3204.946          42.000  
  25741845.070      567038.080       -4533.017          43.000  
  21612710.942      -94693.762         749.301          42.000  
  22587473.021      481667.896       -3866.952          43.000  
  20228929.459       41574.779        -366.572          43.000  
  22690324.429     -247826.746        1969.641          42.000  
  22017039.398     -285407.943        2270.875          43.000  
  25167394.058      487001.544       -3897.838          43.000  
  24932648.669     -203424.110        1595.481          43.000  
 14 12 20  0  2  8.0000000  0 13G23G 2G 3G 1G20G32G 6G28G17G 9G10G11
                                G12
  22466083.129      -64076.912         482.282          42.000  
  24875617.832     -185286.560        1480.994          42.000  
  22083701.079      455483.835       -3629.426          42.000  
  23787194.895      419304.179       -3328.831          42.000  
  21131791.073      401313.087       -3204.630          42.000  
  25742708.140      571570.909       -4532.469          42.000  
  21612568.968      -95443.420         749.450          42.000  
  22588209.507      485534.149       -3865.835          42.000  
  20228999.033       41941.050        -366.562          43.000  
  22689950.192     -249796.902        1970.576          42.000  
  22016607.208     -287679.399        2271.483          42.000  
  25168135.937      490898.934       -3897.233          42.000  
  24932345.314     -205019.528        1595.275          42.000  
 14 12 20  0  2  9.0000000  0 13G23G 2G 3G 1G20G32G 6G28G17G 9G10G11
                                G12
  22465991.532      -64558.887         480.991          42.000  
  24875336.412     -186767.361        1480.559          42.000  
  22084391.916      459113.229       -3629.717          42.000  
  23787827.954      422633.854       -3329.798          42.000  
  21132401.587      404517.634       -3205.252          42.000  
  25743571.123      576103.691       -4533.604          42.000  
  21612426.469      -96192.906         748.893          42.000  
  22588945.470      489400.661       -3867.268          42.000  
  20229069.043       42307.865        -367.242          43.000  
  22689576.496     -251766.784        1968.878          42.000  
  22016175.577     -289950.481        2270.994          42.000  
  25168878.129      494796.410       -3897.332          42.000  
  24932042.675     -206614.510        1594.290          42.000  
 14 12 20  0  2 10.0000000  0 13G23G 2G 3G 1G20G32G 6G28G17G 9G10G11
                                G12
  22465900.093      -65040.057         481.099          42.000  
  24875055.673     -188247.882        1481.212          42.000  
  22085082.491      462743.176       -3629.876          42.000  
  23788462.095      425963.887       -3329.743          42.000  
  21133011.454      407722.839       -3205.318          43.000  
  25744434.456      580636.738       -4532.933          42.000  
  21612284.110      -96941.924         748.948          42.000  
  22589681.660      493267.716       -3866.923          42.000  
  20229138.984       42675.464        -367.172          43.000  
  22689202.084     -253736.098        1969.518          42.000  
  22015743.527     -292220.908        2270.448          42.000  
  25169620.148      498694.225       -3897.422          42.000  
  24931739.669     -208208.717        1594.253          42.000  
 14 12 20  0  2 11.0000000  0 13G23G 2G 3G 1G20G32G 6G28G17G 9G10G11
                                G12
  22465808.846      -65520.941         480.753          42.000  
  24874773.573     -189728.576        1481.138          42.000  
  22085773.397      466373.210       -3630.643          42.000  
  23789095.381      429293.766       -3330.012          42.000  
  21133621.165      410928.202       -3206.123          43.000  
  25745297.543      585169.562       -4533.018          42.000  
  21612141.734      -97690.971         748.778          43.000  
  22590417.501      497134.825       -3867.210          42.000  
  20229209.308       43043.381        -367.755          43.000  
  22688827.114     -255705.353        1969.270          42.000  
  22015311.756     -294491.153        2269.826          42.000  
  25170362.270      502591.926       -3897.961          42.000  
  24931435.896     -209802.708        1593.762          42.000  
 14 12 20  0  2 12.0000000  0 13G23G 2G 3G 1G20G32G 6G28G17G 9G10G11
                                G12
  22465717.372      -66001.493         480.417          42.000  
  24874492.084     -191209.452        1480.343          42.000  
  22086464.880      470003.369       -3629.791          42.000  
  23789728.806      432623.555       -3329.576          42.000  
  21134231.870      414133.785       -3205.460          42.000  
  25746160.038      589702.228       -4532.719          42.000  
  21611999.288      -98440.013         749.074          42.000  
  22591153.655      501002.024       -3866.575          43.000  
  20229279.283       43411.665        -368.461          43.000  
  22688453.016     -257674.471        1969.387          42.000  
  22014880.160     -296761.163        2270.182          42.000  
  25171104.777      506489.528       -3897.541          42.000  
  24931132.663     -211396.379        1593.370          42.000  
 14 12 20  0  2 13.0000000  0 13G23G 2G 3G 1G20G32G 6G28G17G 9G10G11
                                G12
  22465626.456      -66481.683         479.336          43.000  
  24874210.507     -192690.435        1479.716          42.000  
  22087156.240      473633.673       -3631.364          42.000  
  23790362.528      435953.283       -3330.810          43.000  
  21134841.581      417339.620       -3205.952          42.000  
  25747022.934      594234.745       -4532.997          43.000  
  21611856.859      -99188.988         748.311          42.000  
  22591890.194      504869.363       -3867.596          42.000  
  20229349.747       43780.360        -369.502          43.000  
  22688078.464     -259643.438        1968.066          42.000  
  22014448.704     -299030.920        2268.860          42.000  
  25171846.848      510387.105       -3898.993          42.000  
  24930829.920     -212989.722        1592.469          43.000  
 14 12 20  0  2 14.0000000  0 13G23G 2G 3G 1G20G32G 6G28G17G 9G10G11
                                G12
  22465535.611      -66960.983         478.933          42.000  
  24873929.052     -194171.017        1479.937          42.000  
  22087846.658      477264.636       -3631.215          42.000  
  23790996.791      439283.448       -3329.889          42.000  
  21135451.798      420546.194       -3206.862          42.000  
  25747885.411      598767.597       -4533.218          42.000  
  21611714.989      -99937.419         748.200          42.000  
  22592626.942      508737.313       -3868.074          42.000  
  20229420.491       44149.929        -370.108          43.000  
  22687703.721     -261611.756        1968.006          42.000  
  22014016.915     -301299.936        2268.415          42.000  
  25172589.285      514285.112       -3898.390          43.000  
  24930526.705     -214582.233        1591.819          42.000  
 14 12 20  0  2 15.0000000  0 13G23G 2G 3G 1G20G32G 6G28G17G 9G10G11
                                G12
  22465444.957      -67439.649         478.431          42.000  
  24873647.179     -195651.479        1480.644          42.000  
  22088537.390      480896.041       -3631.771          42.000  
  23791630.880      442613.810       -3330.364          42.000  
  21136062.450      423753.269       -3207.174          42.000  
  25748747.748      603300.582       -4532.906          43.000  
  21611572.961     -100685.552         747.942          42.000  
  22593363.115      512605.660       -3867.854          42.000  
  20229491.635       44520.177        -370.232          43.000  
  22687329.012     -263579.659        1967.486          42.000  
  22013585.005     -303568.425        2268.885          43.000  
  25173331.355      518183.335       -3898.807          43.000  
  24930224.223     -216174.151        1591.980          42.000  
 14 12 20  0  2 16.0000000  0 13G23G 2G 3G 1G20G32G 6G28G17G 9G10G11
                                G12
  22465353.727      -67917.987         478.749          42.000  
  24873365.969     -197132.088        1481.262          43.000  
  22089229.291      484527.541       -3631.062          42.000  
  23792264.707      445944.062       -3329.382          42.000  
  21136673.487      426960.568       -3206.840          42.000  
  25749611.394      607833.385       -4532.427          42.000  
  21611430.986     -101433.664         748.596          42.000  
  22594099.287      516474.094       -3868.738          42.000  
  20229562.326       44890.764        -370.688          43.000  
  22686955.019     -265547.437        1968.887          42.000  
  22013153.636     -305836.689        2268.738          42.000  
  25174073.077      522081.475       -3898.021          42.000  
  24929921.304     -217765.774        1591.712          42.000  
 14 12 20  0  2 17.0000000  0 13G23G 2G 3G 1G20G32G 6G28G17G 9G10G11
                                G12
  22465263.213      -68395.847         477.917          42.000  
  24873083.589     -198612.705        1480.346          42.000  
  22089920.860      488159.312       -3631.718          43.000  
  23792899.266      449274.356       -3329.989          43.000  
  21137284.175      430168.220       -3207.448          43.000  
  25750474.761      612366.147       -4533.294          43.000  
  21611289.657     -102181.610         747.851          43.000  
  22594836.192      520342.781       -3868.457          42.000  
  20229633.505       45261.893        -371.087          43.000  
  22686581.323     -267514.950        1967.744          42.000  
  22012723.575     -308104.594        2268.221          42.000  
  25174815.479      525979.676       -3898.281          42.000  
  24929619.503     -219356.960        1591.016          42.000  
 14 12 20  0  2 18.0000000  0 13G23G 2G 3G 1G20G32G 6G28G17G 9G10G11
                                G12
  22465173.047      -68873.188         477.618          42.000  
  24872802.204     -200093.310        1481.121          42.000  
  22090611.802      491791.393       -3632.592          42.000  
  23793533.617      452604.741       -3329.464          43.000  
  21137895.002      433376.257       -3207.922          43.000  
  25751337.151      616898.923       -4531.920          42.000  
  21611147.089     -102929.367         747.851          42.000  
  22595572.522      524211.746       -3868.226          43.000  
  20229704.807       45633.539        -371.781          43.000  
  22686206.928     -269482.172        1967.666          42.000  
  22012292.258     -310372.102        2267.695          43.000  
  25175557.951      529877.957       -3898.125          42.000  
  24929316.864     -220947.668        1590.981          43.000  
 14 12 20  0  2 19.0000000  0 13G23G 2G 3G 1G20G32G 6G28G17G 9G10G11
                                G12
  22465082.010      -69350.130         476.264          42.000  
  24872521.308     -201574.006        1479.730          43.000  
  22091303.319      495423.634       -3632.967          43.000  
  23794167.775      455935.088       -3331.097          43.000  
  21138505.045      436584.548       -3209.421          43.000  
  25752199.523      621431.566       -4533.161          42.000  
  21611004.678     -103677.056         746.714          42.000  
  22596308.677      528080.837       -3870.089          43.000  
  20229775.742       46005.604        -372.814          43.000  
  22685833.023     -271449.225        1966.164          43.000  
  22011861.063     -312639.333        2266.597          43.000  
  25176299.637      533776.211       -3899.264          43.000  
  24929014.364     -222538.024        1589.629          42.000  
 14 12 20  0  2 20.0000000  0 13G23G 2G 3G 1G20G32G 6G28G17G 9G10G11
                                G12
  22464991.530      -69826.167         475.250          43.000  
  24872239.470     -203054.251        1479.516          43.000  
  22091994.854      499056.593       -3633.544          42.000  
  23794801.375      459265.917       -3330.933          42.000  
  21139115.924      439793.662       -3209.504          42.000  
  25753062.698      625964.600       -4533.520          43.000  
  21610862.249     -104424.141         746.571          43.000  
  22597045.948      531950.608       -3870.249          43.000  
  20229847.480       46378.624        -373.501          43.000  
  22685458.576     -273415.574        1965.211          42.000  
  22011429.921     -314905.742        2265.844          42.000  
  25177041.010      537674.972       -3898.877          43.000  
  24928712.353     -224127.494        1588.609          42.000  
 14 12 20  0  2 21.0000000  0 13G23G 2G 3G 1G20G32G 6G28G17G 9G10G11
                                G12
  22464901.662      -70301.159         474.631          42.000  
  24871957.719     -204533.993        1479.146          43.000  
  22092687.104      502690.362       -3634.296          43.000  
  23795435.917      462597.328       -3331.912          42.000  
  21139727.014      443003.656       -3210.246          43.000  
  25753925.315      630498.149       -4533.880          42.000  
  21610720.989     -105170.529         745.814          43.000  
  22597782.609      535821.168       -3871.706          43.000  
  20229918.939       46752.701        -374.290          43.000  
  22685084.670     -275381.090        1964.917          43.000  
  22010998.638     -317171.270        2265.112          43.000  
  25177783.621      541574.322       -3899.893          43.000  
  24928410.360     -225715.979        1587.922          43.000  
 14 12 20  0  2 22.0000000  0 13G23G 2G 3G 1G20G32G 6G28G17G 9G10G11
                                G12
  22464811.252      -70775.999         474.760          43.000  
  24871676.386     -206014.022        1480.947          43.000  
  22093379.214      506324.085       -3634.013          42.000  
  23796069.378      465928.490       -3331.228          42.000  
  21140338.504      446213.701       -3209.774          43.000  
  25754788.176      635031.355       -4533.298          42.000  
  21610578.962     -105917.060         746.622          42.000  
  22598519.689      539691.677       -3870.812          42.000  
  20229990.589       47126.968        -374.415          43.000  
  22684711.166     -277346.654        1965.704          42.000  
  22010567.234     -319436.715        2265.971          43.000  
  25178526.093      545473.440       -3899.059          43.000  
  24928108.820     -227304.336        1588.767          42.000  
 14 12 20  0  2 23.0000000  0 13G23G 2G 3G 1G20G32G 6G28G17G 9G10G11
                                G12
  22464721.069      -71250.455         473.978          43.000  
  24871394.932     -207494.195        1479.372          43.000  
  22094070.871      509957.965       -3633.520          43.000  
  23796703.868      469259.590       -3330.774          42.000  
  21140950.239      449423.999       -3210.830          43.000  
  25755651.124      639564.428       -4532.831          42.000  
  21610437.720     -106663.534         746.528          42.000  
  22599256.333      543562.283       -3870.969          43.000  
  20230062.187       47501.640        -374.747          43.000  
  22684337.399     -279312.078        1965.337          43.000  
  22010136.633     -321701.908        2264.957          43.000  
  25179268.111      549372.508       -3898.699          42.000  
  24927806.739     -228892.351        1587.818          42.000  
 14 12 20  0  2 24.0000000  0 13G23G 2G 3G 1G20G32G 6G28G17G 9G10G11
                                G12
  22464630.904      -71724.145         474.728          43.000  
  24871114.001     -208974.099        1479.520          42.000  
  22094762.598      513592.391       -3634.264          42.000  
  23797337.904      472590.996       -3331.433          43.000  
  21141561.171      452634.908       -3210.856          43.000  
  25756513.898      644097.712       -4533.139          42.000  
  21610296.181     -107409.589         745.890          42.000  
  22599993.918      547433.415       -3870.778          42.000  
  20230133.646       47877.082        -375.436          43.000  
  22683964.331     -281276.972        1964.307          42.000  
  22009706.153     -323966.465        2264.700          42.000  
  25180010.217      553271.886       -3899.508          43.000  
  24927506.089     -230479.653        1587.016          43.000  
 14 12 20  0  2 25.0000000  0 13G23G 2G 3G 1G20G32G 6G28G17G 9G10G11
                                G12
  22464541.262      -72197.581         473.889          43.000  
  24870833.227     -210454.214        1479.863          43.000  
  22095454.778      517226.861       -3634.113          42.000  
  23797972.359      475922.230       -3330.988          43.000  
  21142172.714      455845.979       -3210.450          43.000  
  25757376.846      648630.754       -4532.936          42.000  
  21610154.084     -108155.703         745.869          42.000  
  22600730.579      551304.569       -3870.672          43.000  
  20230205.401       48252.837        -375.313          43.000  
  22683590.443     -283241.801        1964.480          42.000  
  22009275.499     -326230.869        2264.613          42.000  
  25180751.868      557171.122       -3898.593          42.000  
  24927204.270     -232066.730        1587.271          42.000  
 14 12 20  0  2 26.0000000  0 13G23G 2G 3G 1G20G32G 6G28G17G 9G10G11
                                G12
  22464450.783      -72670.487         472.834          42.000  
  24870552.383     -211934.286        1479.481          43.000  
  22096146.697      520861.656       -3634.761          43.000  
  23798606.273      479253.593       -3331.260          42.000  
  21142784.239      459057.445       -3212.042          43.000  
  25758239.637      653163.854       -4532.256          42.000  
  21610012.284     -108901.571         746.064          42.000  
  22601467.938      555176.031       -3871.340          43.000  
  20230277.192       48629.146        -376.396          43.000  
  22683216.380     -285206.293        1964.176          42.000  
  22008844.584     -328494.846        2263.790          42.000  
  25181493.625      561070.490       -3899.943          42.000  
  24926903.237     -233653.316        1586.227          42.000  
 14 12 20  0  2 27.0000000  0 13G23G 2G 3G 1G20G32G 6G28G17G 9G10G11
                                G12
  22464361.560      -73142.546         471.919          43.000  
  24870271.312     -213414.024        1480.278          43.000  
  22096838.336      524497.056       -3635.546          42.000  
  23799240.571      482585.342       -3331.677          42.000  
  21143395.468      462269.608       -3212.567          42.000  
  25759103.056      657697.215       -4532.831          42.000  
  21609870.902     -109646.969         746.008          42.000  
  22602205.001      559048.059       -3871.691          43.000  
  20230349.436       49006.312        -376.986          43.000  
  22682842.718     -287170.190        1964.510          43.000  
  22008414.174     -330758.123        2263.103          42.000  
  25182235.573      564970.230       -3899.742          42.000  
  24926601.540     -235239.102        1586.225          43.000  
 14 12 20  0  2 28.0000000  0 13G23G 2G 3G 1G20G32G 6G28G17G 9G10G11
                                G12
  22464271.796      -73614.177         471.565          42.000  
  24869989.875     -214893.839        1479.260          43.000  
  22097529.958      528132.668       -3635.902          42.000  
  23799874.607      485917.053       -3332.724          42.000  
  21144007.029      465482.099       -3212.611          42.000  
  25759965.376      662230.515       -4533.337          42.000  
  21609728.822     -110392.244         745.223          42.000  
  22602941.749      562920.248       -3873.237          42.000  
  20230421.505       49383.933        -377.886          43.000  
  22682469.005     -289133.883        1963.062          42.000  
  22007983.520     -333021.077        2262.346          42.000  
  25182977.905      568870.003       -3900.455          42.000  
  24926299.791     -236824.508        1584.466          42.000  
 14 12 20  0  2 29.0000000  0 13G23G 2G 3G 1G20G32G 6G28G17G 9G10G11
                                G12
  22464183.393      -74085.274         470.243          42.000  
  24869708.525     -216373.538        1479.749          43.000  
  22098221.929      531768.632       -3636.349          42.000  
  23800508.800      489248.921       -3332.094          43.000  
  21144619.130      468694.991       -3213.729          42.000  
  25760828.830      666763.838       -4534.156          42.000  
  21609587.284     -111137.294         744.493          42.000  
  22603678.933      566792.804       -3872.868          43.000  
  20230493.121       49762.134        -379.333          43.000  
  22682095.832     -291097.213        1963.454          43.000  
  22007553.669     -335283.589        2262.115          42.000  
  25183721.215      572769.903       -3900.170          42.000  
  24925999.089     -238409.389        1584.080          42.000  
 14 12 20  0  2 30.0000000  0 13G23G 2G 3G 1G20G32G 6G28G17G 9G10G11
                                G12
  22464094.729      -74556.294         471.254          43.000  
  24869427.332     -217853.737        1480.678          42.000  
  22098914.772      535404.421       -3635.983          42.000  
  23801142.819      492580.398       -3330.844          42.000  
  21145230.498      471907.822       -3212.661          42.000  
  25761691.464      671296.688       -4533.235          42.000  
  21609445.675     -111882.593         746.004          42.000  
  22604415.891      570665.122       -3872.469          42.000  
  20230565.312       50140.413        -378.927          43.000  
  22681722.746     -293060.719        1963.980          42.000  
  22007123.277     -337546.156        2262.674          42.000  
  25184463.669      576669.429       -3899.796          42.000  
  24925697.758     -239994.256        1584.693          42.000  
 14 12 20  0  2 31.0000000  0 13G23G 2G 3G 1G20G32G 6G28G17G 9G10G11
                                G12
  22464005.174      -75026.692         470.367          42.000  
  24869146.576     -219333.777        1480.417          42.000  
  22099607.267      539040.614       -3636.660          42.000  
  23801778.024      495912.047       -3331.926          42.000  
  21145842.565      475121.153       -3213.570          42.000  
  25762553.889      675829.664       -4533.429          42.000  
  21609303.630     -112627.615         745.422          42.000  
  22605152.831      574537.835       -3873.143          42.000  
  20230637.853       50519.348        -378.859          42.000  
  22681349.311     -295023.832        1963.146          42.000  
  22006693.146     -339808.239        2262.119          42.000  
  25185206.141      580569.156       -3899.856          42.000  
  24925396.236     -241578.545        1584.252          42.000  
 14 12 20  0  2 32.0000000  0 13G23G 2G 3G 1G20G32G 6G28G17G 9G10G11
                                G12
  22463916.527      -75496.689         470.035          42.000  
  24868865.662     -220813.892        1479.968          42.000  
  22100299.168      542677.012       -3636.142          42.000  
  23802411.991      499243.686       -3331.599          42.000  
  21146454.177      478334.756       -3213.680          42.000  
  25763417.378      680362.528       -4533.011          42.000  
  21609162.162     -113372.534         744.920          42.000  
  22605889.963      578410.719       -3873.118          42.000  
  20230710.934       50898.721        -379.166          43.000  
  22680975.824     -296986.731        1962.908          42.000  
  22006263.400     -342070.017        2261.189          42.000  
  25185948.665      584468.863       -3899.382          42.000  
  24925095.063     -243162.440        1584.627          42.000  
 14 12 20  0  2 33.0000000  0 13G23G 2G 3G 1G20G32G 6G28G17G 9G10G11
                                G12
  22463827.374      -75965.871         468.643          42.000  
  24868583.545     -222293.695        1479.420          42.000  
  22100990.982      546314.012       -3636.875          42.000  
  23803045.591      502575.692       -3331.754          42.000  
  21147066.034      481549.044       -3214.948          42.000  
  25764280.361      684895.684       -4533.231          42.000  
  21609020.885     -114116.955         743.529          42.000  
  22606627.008      582284.172       -3874.124          42.000  
  20230783.335       51278.928        -380.902          42.000  
  22680602.878     -298949.043        1962.150          42.000  
  22005833.898     -344331.076        2260.686          42.000  
  25186690.491      588368.966       -3900.175          42.000  
  24924793.977     -244745.591        1582.871          42.000  
 14 12 20  0  2 34.0000000  0 13G23G 2G 3G 1G20G32G 6G28G17G 9G10G11
                                G12
  22463738.046      -76434.877         468.216          42.000  
  24868302.596     -223773.802        1480.218          42.000  
  22101683.686      549950.944       -3637.275          42.000  
  23803680.308      505907.446       -3332.214          42.000  
  21147678.293      484763.396       -3214.771          42.000  
  25765142.803      689428.502       -4533.644          42.000  
  21608879.991     -114861.548         744.408          42.000  
  22607364.018      586157.535       -3873.908          42.000  
  20230855.684       51659.340        -381.142          43.000  
  22680229.042     -300911.396        1961.570          42.000  
  22005403.924     -346592.097        2260.497          42.000  
  25187432.614      592268.816       -3900.502          42.000  
  24924492.315     -246328.601        1582.404          42.000  
 14 12 20  0  2 35.0000000  0 13G23G 2G 3G 1G20G32G 6G28G17G 9G10G11
                                G12
  22463649.137      -76903.332         467.642          43.000  
  24868021.089     -225253.866        1480.056          42.000  
  22102375.500      553588.228       -3637.207          42.000  
  23804314.553      509239.314       -3331.636          42.000  
  21148290.254      487978.162       -3214.647          42.000  
  25766005.280      693961.343       -4532.527          42.000  
  21608738.732     -115605.893         744.581          42.000  
  22608101.551      590031.223       -3874.018          42.000  
  20230928.102       52040.335        -381.059          42.000  
  22679856.026     -302873.416        1961.886          43.000  
  22004973.881     -348852.668        2260.654          42.000  
  25188174.720      596168.810       -3899.817          43.000  
  24924190.513     -247911.091        1582.859          42.000  
 14 12 20  0  2 36.0000000  0 13G23G 2G 3G 1G20G32G 6G28G17G 9G10G11
                                G12
  22463560.560      -77371.283         467.438          42.000  
  24867739.076     -226733.919        1479.506          42.000  
  22103068.552      557225.784       -3638.171          42.000  
  23804948.921      512571.235       -3332.000          43.000  
  21148902.478      491193.286       -3215.655          42.000  
  25766867.600      698494.173       -4533.005          42.000  
  21608597.089     -116350.062         744.278          42.000  
  22608839.242      593905.152       -3874.428          43.000  
  20231000.608       52421.838        -382.147          43.000  
  22679482.731     -304835.140        1961.974          43.000  
  22004543.925     -351112.862        2259.544          42.000  
  25188916.982      600068.858       -3900.124          42.000  
  24923889.759     -249493.116        1581.653          42.000  
 14 12 20  0  2 37.0000000  0 13G23G 2G 3G 1G20G32G 6G28G17G 9G10G11
                                G12
  22463471.599      -77838.472         466.198          43.000  
  24867457.430     -228213.687        1479.927          42.000  
  22103761.169      560863.887       -3639.275          42.000  
  23805583.428      515903.494       -3332.437          43.000  
  21149515.120      494409.066       -3216.135          42.000  
  25767729.938      703027.231       -4533.649          42.000  
  21608456.510     -117093.805         743.082          42.000  
  22609577.613      597779.611       -3874.455          43.000  
  20231073.707       52804.155        -382.587          43.000  
  22679110.623     -306796.315        1960.702          43.000  
  22004114.405     -353372.411        2258.774          42.000  
  25189659.367      603969.269       -3900.389          42.000  
  24923589.196     -251074.422        1580.589          42.000  
 14 12 20  0  2 38.0000000  0 13G23G 2G 3G 1G20G32G 6G28G17G 9G10G11
                                G12
  22463382.638      -78305.096         465.914          42.000  
  24867176.464     -229693.397        1479.413          42.000  
  22104453.821      564502.335       -3638.885          42.000  
  23806217.761      519235.887       -3332.724          42.000  
  21150127.274      497625.268       -3216.840          42.000  
  25768593.462      707560.354       -4534.037          42.000  
  21608315.442     -117837.288         743.505          42.000  
  22610315.111      601654.376       -3875.512          43.000  
  20231147.068       53187.049        -383.937          43.000  
  22678738.270     -308757.154        1960.311          43.000  
  22003684.415     -355631.509        2258.668          42.000  
  25190402.223      607869.801       -3901.194          42.000  
  24923289.384     -252655.209        1579.535          43.000  
 14 12 20  0  2 39.0000000  0 13G23G 2G 3G 1G20G32G 6G28G17G 9G10G11
                                G12
  22463294.252      -78771.062         466.120          43.000  
  24866894.957     -231172.921        1480.468          43.000  
  22105147.205      568141.238       -3638.057          43.000  
  23806852.234      522568.489       -3331.333          42.000  
  21150739.637      500842.000       -3215.943          42.000  
  25769457.021      712093.593       -4532.459          42.000  
  21608173.903     -118580.464         743.742          42.000  
  22611052.680      605529.553       -3874.737          43.000  
  20231219.660       53570.638        -383.242          43.000  
  22678366.109     -310717.550        1960.646          43.000  
  22003255.157     -357890.062        2258.851          43.000  
  25191144.171      611770.576       -3900.271          43.000  
  24922988.717     -254235.369        1580.790          43.000  
 14 12 20  0  2 40.0000000  0 13G23G 2G 3G 1G20G32G 6G28G17G 9G10G11
                                G12
  22463206.356      -79236.892         465.583          42.000  
  24866613.520     -232652.813        1480.144          43.000  
  22105839.211      571780.054       -3638.901          43.000  
  23807486.933      525900.796       -3331.894          43.000  
  21151351.860      504058.755       -3216.711          42.000  
  25770319.969      716626.474       -4532.504          43.000  
  21608032.382     -119323.805         742.609          42.000  
  22611790.388      609404.644       -3874.768          43.000  
  20231292.445       53954.376        -384.095          43.000  
  22677993.233     -312678.007        1960.676          43.000  
  22002826.091     -360148.593        2258.419          42.000  
  25191886.730      615671.068       -3900.534          42.000  
  24922688.590     -255815.427        1579.986          43.000  
 14 12 20  0  2 41.0000000  0 13G23G 2G 3G 1G20G32G 6G28G17G 9G10G11
                                G12
  22463117.726      -79701.951         463.907          43.000  
  24866332.344     -234132.427        1479.432          42.000  
  22106531.810      575419.407       -3640.185          42.000  
  23808121.877      529233.437       -3333.577          43.000  
  21151964.537      507276.128       -3217.891          43.000  
  25771182.725      721159.597       -4533.994          42.000  
  21607891.803     -120066.683         741.900          42.000  
  22612527.834      613280.216       -3876.635          43.000  
  20231365.701       54338.925        -385.157          43.000  
  22677620.601     -314637.930        1959.188          43.000  
  22002396.693     -362406.473        2256.944          43.000  
  25192630.249      619571.898       -3901.135          43.000  
  24922388.150     -257394.767        1578.661          43.000  
 14 12 20  0  2 42.0000000  0 13G23G 2G 3G 1G20G32G 6G28G17G 9G10G11
                                G12
  22463030.161      -80166.200         464.481          42.000  
  24866050.820     -235611.746        1478.717          42.000  
  22107224.985      579059.353       -3640.237          42.000  
  23808756.209      532566.445       -3332.714          42.000  
  21152576.708      510494.193       -3218.564          42.000  
  25772045.132      725693.002       -4533.084          43.000  
  21607750.927     -120809.118         742.524          43.000  
  22613265.873      617156.383       -3876.358          42.000  
  20231439.254       54724.285        -385.753          43.000  
  22677248.353     -316597.260        1959.260          43.000  
  22001967.767     -364663.664        2257.124          42.000  
  25193372.581      623473.108       -3901.576          43.000  
  24922088.512     -258973.339        1577.938          43.000  
 14 12 20  0  2 43.0000000  0 13G23G 2G 3G 1G20G32G 6G28G17G 9G10G11
                                G12
  22462941.461      -80630.595         463.512          43.000  
  24865769.732     -237091.640        1480.701          43.000  
  22107917.863      582698.966       -3639.595          42.000  
  23809390.752      535898.880       -3332.667          42.000  
  21153189.176      513711.998       -3217.990          43.000  
  25772907.923      730225.757       -4532.887          43.000  
  21607609.651     -121551.988         742.734          43.000  
  22614003.389      621032.158       -3875.724          43.000  
  20231513.260       55109.570        -385.213          43.000  
  22676875.913     -318556.937        1959.679          42.000  
  22001538.718     -366921.090        2256.351          42.000  
  25194114.931      627373.759       -3901.111          42.000  
  24921787.932     -260552.069        1578.850          42.000  
 14 12 20  0  2 44.0000000  0 13G23G 2G 3G 1G20G32G 6G28G17G 9G10G11
                                G12
  22462854.123      -81094.115         463.142          43.000  
  24865488.452     -238571.232        1479.935          43.000  
  22108610.724      586339.190       -3640.789          43.000  
  23810025.067      539231.716       -3332.961          43.000  
  21153802.220      516930.506       -3219.285          43.000  
  25773770.645      734758.837       -4533.237          42.000  
  21607468.862     -122294.329         742.086          42.000  
  22614741.237      624908.528       -3876.846          43.000  
  20231586.935       55495.698        -386.613          43.000  
  22676502.636     -320515.966        1958.892          42.000  
  22001108.675     -369177.784        2256.473          42.000  
  25194857.787      631274.845       -3901.378          42.000  
  24921487.946     -262130.004        1577.598          42.000  
 14 12 20  0  2 45.0000000  0 13G23G 2G 3G 1G20G32G 6G28G17G 9G10G11
                                G12
  22462766.750      -81557.286         463.432          43.000  
  24865207.364     -240050.930        1479.501          43.000  
  22109303.986      589979.552       -3640.343          42.000  
  23810659.679      542564.495       -3332.320          43.000  
  21154414.967      520149.255       -3218.559          43.000  
  25774633.733      739291.737       -4532.361          42.000  
  21607327.463     -123036.653         741.876          42.000  
  22615478.893      628785.008       -3876.611          43.000  
  20231661.360       55882.228        -386.663          43.000  
  22676130.073     -322474.886        1958.999          43.000  
  22000679.086     -371434.258        2256.417          42.000  
  25195600.293      635175.873       -3900.419          42.000  
  24921188.203     -263707.618        1577.854          42.000  
 14 12 20  0  2 46.0000000  0 13G23G 2G 3G 1G20G32G 6G28G17G 9G10G11
                                G12
  22462679.062      -82019.702         461.963          43.000  
  24864925.595     -241530.363        1479.104          43.000  
  22109997.493      593620.468       -3641.489          43.000  
  23811293.506      545897.599       -3333.227          42.000  
  21155027.312      523368.641       -3219.633          42.000  
  25775496.768      743824.902       -4533.492          43.000  
  21607186.867     -123778.509         742.272          42.000  
  22616217.386      632662.016       -3877.308          42.000  
  20231735.349       56269.554        -387.165          43.000  
  22675757.337     -324433.227        1957.935          42.000  
  22000249.950     -373690.060        2255.962          42.000  
  25196343.097      639077.220       -3900.995          42.000  
  24920888.757     -265284.504        1576.842          42.000  
 14 12 20  0  2 47.0000000  0 13G23G 2G 3G 1G20G32G 6G28G17G 9G10G11
                                G12
  22462590.991      -82481.812         461.587          43.000  
  24864643.687     -243009.982        1479.702          42.000  
  22110691.523      597261.465       -3641.269          42.000  
  23811927.821      549230.563       -3333.258          43.000  
  21155640.984      526588.181       -3220.314          43.000  
  25776360.013      748357.867       -4533.413          43.000  
  21607045.607     -124520.399         742.137          42.000  
  22616955.303      636539.071       -3877.622          42.000  
  20231809.722       56657.192        -388.337          43.000  
  22675385.124     -326391.480        1958.139          43.000  
  21999821.442     -375945.674        2255.046          42.000  
  25197086.337      642978.449       -3902.295          43.000  
  24920588.701     -266861.120        1576.336          43.000  
 14 12 20  0  2 48.0000000  0 13G23G 2G 3G 1G20G32G 6G28G17G 9G10G11
                                G12
  22462503.077      -82943.260         461.015          42.000  
  24864361.796     -244489.428        1478.426          42.000  
  22111384.838      600902.900       -3641.332          43.000  
  23812562.015      552563.752       -3334.163          43.000  
  21156254.132      529808.278       -3220.858          43.000  
  25777222.961      752890.937       -4533.613          43.000  
  21606904.225     -125261.955         741.179          43.000  
  22617693.430      640416.535       -3878.426          42.000  
  20231883.432       57045.530        -388.951          43.000  
  22675013.085     -328349.319        1956.256          43.000  
  21999392.307     -378200.751        2253.695          43.000  
  25197828.494      646879.901       -3902.031          43.000  
  24920289.447     -268437.118        1575.890          43.000  
 14 12 20  0  2 49.0000000  0 13G23G 2G 3G 1G20G32G 6G28G17G 9G10G11
                                G12
  22462415.983      -83404.102         461.244          43.000  
  24864081.057     -245968.780        1479.520          43.000  
  22112078.379      604544.721       -3641.480          43.000  
  23813196.941      555897.108       -3332.692          43.000  
  21156866.984      533028.814       -3220.091          43.000  
  25778085.560      757424.079       -4534.080          43.000  
  21606763.612     -126003.243         741.467          42.000  
  22618431.696      644294.344       -3877.794          43.000  
  20231957.438       57434.474        -389.059          43.000  
  22674640.959     -330306.748        1957.315          42.000  
  21998963.660     -380455.359        2254.279          43.000  
  25198570.722      650781.561       -3901.792          43.000  
  24919989.949     -270012.575        1575.053          43.000  
 14 12 20  0  2 50.0000000  0 13G23G 2G 3G 1G20G32G 6G28G17G 9G10G11
                                G12
  22462328.016      -83864.765         460.287          42.000  
  24863799.567     -247448.425        1479.185          42.000  
  22112771.257      608186.498       -3641.519          43.000  
  23813831.884      559230.221       -3333.073          42.000  
  21157480.202      536249.445       -3220.889          42.000  
  25778947.775      761956.931       -4532.671          42.000  
  21606622.806     -126744.641         741.170          42.000  
  22619169.963      648172.119       -3878.199          42.000  
  20232032.526       57823.658        -389.201          43.000  
  22674269.269     -332264.204        1957.339          42.000  
  21998534.978     -382709.877        2254.343          42.000  
  25199313.682      654682.976       -3901.491          43.000  
  24919690.782     -271587.848        1574.568          43.000  
 14 12 20  0  2 51.0000000  0 13G23G 2G 3G 1G20G32G 6G28G17G 9G10G11
                                G12
  22462240.661      -84325.021         460.142          42.000  
  24863518.322     -248928.171        1479.861          42.000  
  22113464.380      611828.455       -3641.793          42.000  
  23814466.915      562563.277       -3333.303          42.000  
  21158093.438      539470.320       -3220.431          42.000  
  25779810.758      766489.652       -4532.758          42.000  
  21606482.733     -127485.991         741.118          42.000  
  22619908.142      652050.025       -3878.595          42.000  
  20232107.074       58213.260        -390.155          42.000  
  22673897.091     -334221.476        1957.205          42.000  
  21998106.191     -384964.098        2253.150          42.000  
  25200056.503      658584.354       -3901.408          42.000  
  24919391.302     -273162.784        1574.176          42.000  
 14 12 20  0  2 52.0000000  0 13G23G 2G 3G 1G20G32G 6G28G17G 9G10G11
                                G12
  22462153.811      -84784.704         458.924          42.000  
  24863237.496     -250407.838        1479.502          42.000  
  22114157.922      615470.776       -3641.982          42.000  
  23815100.690      565896.485       -3332.123          42.000  
  21158706.568      542691.643       -3221.045          42.000  
  25780674.631      771022.399       -4532.009          42.000  
  21606341.404     -128227.081         741.583          42.000  
  22620646.897      655928.248       -3878.171          42.000  
  20232181.708       58603.454        -389.601          42.000  
  22673524.564     -336178.404        1957.015          42.000  
  21997677.561     -387217.886        2253.787          42.000  
  25200799.272      662485.864       -3902.082          42.000  
  24919091.472     -274737.187        1574.094          42.000  
 14 12 20  0  2 53.0000000  0 13G23G 2G 3G 1G20G32G 6G28G17G 9G10G11
                                G12
  22462067.013      -85243.804         458.631          42.000  
  24862956.129     -251887.391        1479.331          42.000  
  22114851.114      619113.473       -3642.209          42.000  
  23815735.337      569229.845       -3333.107          43.000  
  21159319.926      545913.427       -3221.515          43.000  
  25781537.649      775555.231       -4532.602          42.000  
  21606200.755     -128967.884         741.107          42.000  
  22621384.727      659806.834       -3878.452          42.000  
  20232256.029       58994.288        -390.985          43.000  
  22673152.264     -338134.928        1956.863          42.000  
  21997249.420     -389471.168        2253.167          43.000  
  25201542.285      666387.574       -3902.063          42.000  
  24918792.149     -276311.017        1573.494          42.000  
 14 12 20  0  2 54.0000000  0 13G23G 2G 3G 1G20G32G 6G28G17G 9G10G11
                                G12
  22461980.425      -85702.085         458.020          42.000  
  24862675.232     -253366.650        1479.226          42.000  
  22115545.092      622756.751       -3643.813          42.000  
  23816369.879      572563.559       -3333.714          42.000  
  21159933.842      549135.884       -3222.737          42.000  
  25782400.755      780088.357       -4533.058          42.000  
  21606060.385     -129708.223         740.344          42.000  
  22622123.150      663685.970       -3879.233          42.000  
  20232330.594       59385.947        -391.343          42.000  
  22672780.260     -340090.884        1955.928          42.000  
  21996820.406     -391723.782        2252.625          42.000  
  25202284.844      670289.663       -3902.482          42.000  
  24918493.017     -277884.089        1572.748          42.000  
 14 12 20  0  2 55.0000000  0 13G23G 2G 3G 1G20G32G 6G28G17G 9G10G11
                                G12
  22461894.152      -86159.692         456.658          42.000  
  24862393.900     -254845.707        1478.506          42.000  
  22116238.563      626400.464       -3644.449          42.000  
  23817004.753      575897.516       -3334.318          42.000  
  21160546.903      552358.881       -3222.792          42.000  
  25783263.755      784621.616       -4533.651          42.000  
  21605919.475     -130448.222         738.944          42.000  
  22622861.033      667565.514       -3879.735          42.000  
  20232405.682       59778.279        -393.285          42.000  
  22672407.436     -342046.383        1954.823          42.000  
  21996392.405     -393975.841        2251.788          42.000  
  25203028.014      674191.993       -3902.740          42.000  
  24918193.816     -279456.537        1572.206          42.000  
 14 12 20  0  2 56.0000000  0 13G23G 2G 3G 1G20G32G 6G28G17G 9G10G11
                                G12
  22461806.813      -86616.600         456.585          42.000  
  24862112.585     -256324.557        1478.747          42.000  
  22116932.349      630044.680       -3644.630          42.000  
  23817639.539      579231.758       -3334.112          42.000  
  21161161.116      555582.468       -3224.006          42.000  
  25784127.000      789155.080       -4533.452          42.000  
  21605778.058     -131187.823         739.212          42.000  
  22623599.735      671445.549       -3880.446          42.000  
  20232480.404       60171.375        -392.976          42.000  
  22672035.310     -344001.375        1954.680          42.000  
  21995964.211     -396227.292        2251.463          42.000  
  25203770.922      678094.607       -3901.850          42.000  
  24917895.364     -281028.307        1571.483          42.000  
 14 12 20  0  2 57.0000000  0 13G23G 2G 3G 1G20G32G 6G28G17G 9G10G11
                                G12
  22461720.155      -87072.953         455.951          42.000  
  24861831.357     -257803.362        1478.832          42.000  
  22117626.519      633689.220       -3644.284          42.000  
  23818274.570      582566.087       -3334.279          42.000  
  21161774.631      558806.461       -3223.058          42.000  
  25784989.774      793688.556       -4533.354          42.000  
  21605638.090     -131927.212         739.602          42.000  
  22624338.874      675325.851       -3879.739          42.000  
  20232555.335       60565.022        -393.727          42.000  
  22671663.882     -345956.045        1955.242          42.000  
  21995536.245     -398478.321        2250.830          42.000  
  25204514.161      681997.328       -3902.816          42.000  
  24917596.181     -282599.562        1570.948          42.000  
 14 12 20  0  2 58.0000000  0 13G23G 2G 3G 1G20G32G 6G28G17G 9G10G11
                                G12
  22461633.341      -87528.557         455.381          42.000  
  24861550.130     -259281.918        1477.868          43.000  
  22118320.113      637334.311       -3644.956          42.000  
  23818909.741      585900.754       -3335.065          42.000  
  21162388.407      562031.059       -3224.941          42.000  
  25785853.158      798222.260       -4533.156          42.000  
  21605497.930     -132666.169         739.111          42.000  
  22625077.769      679206.671       -3880.594          42.000  
  20232630.685       60959.470        -394.964          43.000  
  22671292.716     -347910.164        1954.004          42.000  
  21995108.540     -400728.718        2250.171          42.000  
  25205256.825      685900.387       -3903.855          42.000  
  24917297.590     -284170.117        1569.942          42.000  
 14 12 20  0  2 59.0000000  0 13G23G 2G 3G 1G20G32G 6G28G17G 9G10G11
                                G12
  22461547.171      -87983.744         454.832          43.000  
  24861268.605     -260760.528        1478.441          43.000  
  22119013.951      640979.561       -3645.229          42.000  
  23819544.143      589235.393       -3334.622          42.000  
  21163002.480      565255.963       -3224.916          42.000  
  25786715.775      802755.862       -4533.899          42.000  
  21605357.700     -133405.015         738.820          42.000  
  22625815.965      683087.657       -3880.650          43.000  
  20232706.157       61354.347        -395.120          43.000  
  22670921.480     -349864.105        1954.090          43.000  
  21994680.451     -402978.802        2249.725          43.000  
  25205999.716      689803.435       -3902.757          42.000  
  24916998.737     -285740.288        1570.475          43.000  
 14 12 20  0  3  0.0000000  0 13G23G 2G 3G 1G20G32G 6G28G17G 9G10G11
                                G12
  22461460.357      -88438.802         454.933          42.000  
  24860987.692     -262239.505        1479.129          43.000  
  22119707.946      644624.726       -3645.573          42.000  
  23820179.628      592569.707       -3334.191          42.000  
  21163616.187      568480.853       -3225.194          42.000  
  25787578.287      807289.068       -4533.259          43.000  
  21605217.959     -134144.092         738.665          42.000  
  22626554.999      686968.500       -3881.161          42.000  
  20232782.240       61749.374        -395.401          42.000  
  22670549.878     -351818.141        1953.185          42.000  
  21994252.921     -405228.879        2249.587          43.000  
  25206742.641      693706.182       -3902.601          42.000  
  24916700.949     -287310.370        1570.081          42.000  
 14 12 20  0  3  1.0000000  0 13G23G 2G 3G 1G20G32G 6G28G17G 9G10G11
                                G12
  22461374.397      -88893.371         455.141          42.000  
  24860707.441     -263718.499        1479.022          43.000  
  22120401.592      648270.160       -3645.989          42.000  
  23820814.205      595904.088       -3333.932          42.000  
  21164230.871      571706.105       -3225.419          42.000  
  25788440.345      811822.237       -4532.896          43.000  
  21605076.891     -134882.979         738.759          42.000  
  22627294.103      690849.597       -3881.117          42.000  
  20232857.276       62144.918        -395.670          42.000  
  22670178.153     -353771.865        1954.080          42.000  
  21993825.111     -407478.575        2249.793          43.000  
  25207485.724      697608.998       -3902.944          42.000  
  24916402.394     -288880.008        1569.279          42.000  
 14 12 20  0  3  2.0000000  0 13G23G 2G 3G 1G20G32G 6G28G17G 9G10G11
                                G12
  22461288.437      -89347.497         454.716          43.000  
  24860425.864     -265197.530        1479.247          43.000  
  22121095.011      651915.827       -3645.223          42.000  
  23821448.835      599238.460       -3334.177          42.000  
  21164844.752      574931.680       -3225.202          42.000  
  25789303.310      816355.335       -4532.693          43.000  
  21604936.277     -135621.755         739.225          42.000  
  22628032.719      694730.881       -3881.894          42.000  
  20232933.394       62540.953        -395.873          43.000  
  22669806.359     -355725.379        1953.264          42.000  
  21993397.197     -409727.960        2249.489          42.000  
  25208228.824      701511.824       -3902.315          43.000  
  24916103.663     -290449.225        1569.048          42.000  
 14 12 20  0  3  3.0000000  0 13G23G 2G 3G 1G20G32G 6G28G17G 9G10G11
                                G12
  22461202.425      -89801.127         452.432          42.000  
  24860145.090     -266676.564        1478.801          42.000  
  22121789.111      655561.764       -3647.404          42.000  
  23822083.743      602572.912       -3335.084          42.000  
  21165458.546      578157.585       -3227.417          42.000  
  25790166.363      820888.406       -4534.034          43.000  
  21604796.204     -136360.358         737.859          42.000  
  22628771.544      698612.427       -3881.655          42.000  
  20233009.320       62937.478        -398.049          43.000  
  22669435.262     -357678.616        1952.189          42.000  
  21992969.754     -411976.949        2248.288          43.000  
  25208972.011      705414.740       -3904.333          43.000  
  24915805.143     -292018.001        1567.435          42.000  
 14 12 20  0  3  4.0000000  0 13G23G 2G 3G 1G20G32G 6G28G17G 9G10G11
                                G12
  22461116.517      -90253.789         452.117          42.000  
  24859864.316     -268155.136        1478.378          42.000  
  22122482.949      659208.434       -3647.366          42.000  
  23822718.739      605907.880       -3335.265          42.000  
  21166072.846      581384.344       -3227.470          42.000  
  25791029.085      825421.912       -4533.705          42.000  
  21604655.852     -137098.328         737.749          42.000  
  22629510.421      702494.678       -3882.199          42.000  
  20233084.687       63335.008        -398.123          43.000  
  22669063.555     -359631.102        1952.014          42.000  
  21992541.543     -414225.098        2247.174          43.000  
  25209714.396      709318.167       -3903.827          43.000  
  24915507.826     -293585.845        1567.591          43.000  
 14 12 20  0  3  5.0000000  0 13G23G 2G 3G 1G20G32G 6G28G17G 9G10G11
                                G12
  22461031.011      -90705.765         451.229          43.000  
  24859583.001     -269633.505        1478.155          42.000  
  22123177.782      662855.588       -3647.149          42.000  
  23823353.945      609243.086       -3335.158          42.000  
  21166686.954      584611.665       -3227.516          42.000  
  25791892.975      829955.591       -4533.438          43.000  
  21604515.587     -137835.920         737.536          42.000  
  22630248.809      706377.368       -3882.758          43.000  
  20233160.858       63733.267        -397.808          43.000  
  22668692.372     -361583.096        1952.393          42.000  
  21992114.275     -416472.663        2247.322          42.000  
  25210458.107      713221.875       -3904.240          43.000  
  24915209.462     -295153.043        1566.390          42.000  
 14 12 20  0  3  6.0000000  0 13G23G 2G 3G 1G20G32G 6G28G17G 9G10G11
                                G12
  22460944.999      -91157.530         452.581          43.000  
  24859302.193     -271112.174        1479.463          42.000  
  22123871.987      666502.681       -3646.895          42.000  
  23823989.011      612578.054       -3334.305          43.000  
  21167301.551      587839.025       -3227.179          42.000  
  25792756.133      834488.931       -4533.206          43.000  
  21604375.986     -138573.663         737.813          42.000  
  22630988.873      710259.976       -3882.105          42.000  
  20233237.080       64131.728        -397.822          43.000  
  22668320.508     -363535.126        1953.118          42.000  
  21991686.570     -418720.155        2247.860          42.000  
  25211201.085      717125.347       -3902.979          43.000  
  24914910.801     -296720.096        1566.940          42.000  
 14 12 20  0  3  7.0000000  0 13G23G 2G 3G 1G20G32G 6G28G17G 9G10G11
                                G12
  22460858.638      -91608.952         450.098          42.000  
  24859021.227     -272590.969        1478.152          42.000  
  22124566.104      670149.964       -3648.282          42.000  
  23824623.727      615912.964       -3335.273          42.000  
  21167914.979      591066.646       -3228.665          42.000  
  25793619.081      839022.132       -4534.245          42.000  
  21604235.878     -139311.330         737.152          43.000  
  22631728.326      714142.736       -3883.441          42.000  
  20233312.500       64530.602        -399.361          43.000  
  22667949.429     -365487.011        1950.990          42.000  
  21991260.313     -420967.372        2246.847          42.000  
  25211944.726      721028.774       -3903.782          43.000  
  24914613.013     -298286.781        1565.639          42.000  
 14 12 20  0  3  8.0000000  0 13G23G 2G 3G 1G20G32G 6G28G17G 9G10G11
                                G12
  22460773.080      -92059.449         450.319          42.000  
  24858740.069     -274069.328        1478.401          42.000  
  22125260.972      673797.903       -3647.955          42.000  
  23825258.374      619248.332       -3335.383          42.000  
  21168530.081      594295.041       -3228.021          42.000  
  25794482.465      843555.717       -4532.765          42.000  
  21604095.735     -140048.428         737.785          42.000  
  22632467.046      718026.150       -3883.573          42.000  
  20233388.757       64930.395        -399.817          43.000  
  22667578.263     -367438.177        1951.379          42.000  
  21990832.888     -423213.828        2246.098          42.000  
  25212688.280      724932.653       -3903.612          42.000  
  24914315.662     -299852.627        1565.944          43.000  
 14 12 20  0  3  9.0000000  0 13G23G 2G 3G 1G20G32G 6G28G17G 9G10G11
                                G12
  22460687.748      -92509.577         449.738          43.000  
  24858458.370     -275547.849        1478.107          43.000  
  22125955.700      677445.986       -3648.401          42.000  
  23825893.370      622583.634       -3335.379          42.000  
  21169144.591      597523.649       -3228.892          42.000  
  25795345.466      848089.124       -4533.397          42.000  
  21603955.889     -140785.511         736.677          42.000  
  22633206.220      721909.647       -3883.390          42.000  
  20233465.277       65330.569        -401.049          43.000  
  22667207.882     -369389.214        1950.583          42.000  
  21990405.689     -425460.028        2245.978          42.000  
  25213430.874      728836.492       -3904.283          43.000  
  24914018.764     -301418.143        1565.258          42.000  
 14 12 20  0  3 10.0000000  0 13G23G 2G 3G 1G20G32G 6G28G17G 9G10G11
                                G12
  22460602.958      -92958.913         449.023          42.000  
  24858177.142     -277026.043        1478.167          42.000  
  22126650.009      681094.675       -3648.893          42.000  
  23826528.279      625919.302       -3336.039          42.000  
  21169759.711      600752.935       -3229.812          42.000  
  25796207.768      852622.819       -4533.941          42.000  
  21603815.799     -141522.089         736.402          42.000  
  22633946.144      725793.722       -3884.356          42.000  
  20233542.302       65731.589        -401.976          43.000  
  22666837.012     -371339.658        1949.256          42.000  
  21989978.281     -427705.542        2245.097          42.000  
  25214174.270      732740.720       -3903.981          43.000  
  24913721.674     -302982.885        1564.318          42.000  
 14 12 20  0  3 11.0000000  0 13G23G 2G 3G 1G20G32G 6G28G17G 9G10G11
                                G12
  22460517.783      -93407.715         448.501          42.000  
  24857895.583     -278504.224        1477.812          42.000  
  22127344.196      684743.624       -3649.343          42.000  
  23827162.926      629255.042       -3336.312          42.000  
  21170374.412      603982.606       -3230.275          43.000  
  25797070.402      857156.512       -4534.376          42.000  
  21603676.022     -142258.496         735.783          42.000  
  22634685.440      729678.060       -3884.545          42.000  
  20233619.641       66133.158        -402.256          43.000  
  22666466.405     -373289.794        1949.162          42.000  
  21989551.431     -429950.630        2244.370          42.000  
  25214917.789      736645.019       -3904.675          43.000  
  24913424.095     -304547.169        1563.280          42.000  
 14 12 20  0  3 12.0000000  0 13G23G 2G 3G 1G20G32G 6G28G17G 9G10G11
                                G12
  22460432.643      -93856.293         448.345          42.000  
  24857615.263     -279982.644        1477.545          42.000  
  22128039.500      688392.618       -3650.146          42.000  
  23827797.957      632590.577       -3336.303          42.000  
  21170989.306      607212.387       -3230.420          42.000  
  25797933.036      861689.921       -4534.490          42.000  
  21603536.264     -142994.949         736.314          42.000  
  22635424.840      733562.366       -3885.647          42.000  
  20233696.981       66534.992        -402.380          43.000  
  22666095.936     -375239.890        1949.585          42.000  
  21989124.529     -432195.613        2244.326          42.000  
  25215661.517      740549.133       -3904.188          42.000  
  24913126.743     -306111.228        1563.282          42.000  
 14 12 20  0  3 13.0000000  0 13G23G 2G 3G 1G20G32G 6G28G17G 9G10G11
                                G12
  22460347.975      -94303.991         447.463          42.000  
  24857334.070     -281460.703        1478.658          42.000  
  22128733.547      692042.246       -3649.410          42.000  
  23828433.406      635926.565       -3335.822          42.000  
  21171604.426      610442.904       -3230.388          42.000  
  25798795.287      866223.686       -4533.211          42.000  
  21603397.133     -143730.887         735.984          42.000  
  22636164.468      737447.310       -3884.574          42.000  
  20233773.709       66937.713        -402.363          43.000  
  22665725.294     -377189.360        1949.220          42.000  
  21988697.784     -434439.829        2244.564          42.000  
  25216404.164      744453.694       -3904.444          42.000  
  24912829.200     -307674.452        1562.899          42.000  
 14 12 20  0  3 14.0000000  0 13G23G 2G 3G 1G20G32G 6G28G17G 9G10G11
                                G12
  22460263.690      -94750.852         446.725          43.000  
  24857053.435     -282938.421        1477.181          42.000  
  22129428.485      695692.489       -3649.961          42.000  
  23829068.420      639262.949       -3336.021          42.000  
  21172219.424      613674.121       -3230.885          42.000  
  25799658.566      870757.744       -4534.315          42.000  
  21603257.008     -144466.301         735.520          42.000  
  22636903.781      741332.849       -3885.034          42.000  
  20233850.351       67341.297        -403.837          43.000  
  22665355.000     -379138.167        1949.311          42.000  
  21988270.515     -436683.338        2243.637          42.000  
  25217147.246      748358.685       -3904.758          42.000  
  24912532.110     -309236.889        1562.287          42.000  
 14 12 20  0  3 15.0000000  0 13G23G 2G 3G 1G20G32G 6G28G17G 9G10G11
                                G12
  22460179.162      -95197.611         446.601          42.000  
  24856772.208     -284416.506        1478.995          42.000  
  22130122.620      699342.600       -3650.172          42.000  
  23829703.311      642598.980       -3335.608          42.000  
  21172834.492      616905.310       -3230.945          43.000  
  25800521.951      875291.405       -4533.471          43.000  
  21603117.703     -145201.946         735.665          43.000  
  22637643.374      745218.204       -3885.032          42.000  
  20233927.463       67745.026        -403.908          43.000  
  22664984.707     -381087.118        1949.080          42.000  
  21987844.398     -438926.845        2243.382          42.000  
  25217891.271      752263.337       -3903.582          42.000  
  24912235.090     -310799.251        1562.491          42.000  
 14 12 20  0  3 16.0000000  0 13G23G 2G 3G 1G20G32G 6G28G17G 9G10G11
                                G12
  22460093.847      -95643.650         445.795          42.000  
  24856490.683     -285894.394        1477.931          42.000  
  22130817.976      702993.227       -3650.563          42.000  
  23830338.482      645935.307       -3336.245          42.000  
  21173449.455      620137.085       -3231.760          42.000  
  25801385.073      879825.241       -4533.833          42.000  
  21602978.188     -145937.187         734.892          42.000  
  22638382.705      749104.060       -3885.843          43.000  
  20234003.982       68149.484        -404.399          42.000  
  22664614.116     -383035.560        1948.337          42.000  
  21987417.583     -441169.754        2242.854          43.000  
  25218634.284      756168.263       -3904.989          43.000  
  24911938.122     -312360.948        1561.214          42.000  
 14 12 20  0  3 17.0000000  0 13G23G 2G 3G 1G20G32G 6G28G17G 9G10G11
                                G12
  22460009.633      -96089.054         445.046          42.000  
  24856210.468     -287372.122        1477.320          43.000  
  22131512.268      706644.248       -3651.340          43.000  
  23830973.059      649271.819       -3337.170          42.000  
  21174065.744      623369.355       -3233.028          42.000  
  25802248.179      884359.178       -4534.208          42.000  
  21602838.482     -146672.127         733.892          42.000  
  22639123.030      752990.265       -3886.843          43.000  
  20234081.426       68554.596        -405.716          43.000  
  22664243.369     -384983.575        1946.952          42.000  
  21986991.030     -443412.151        2242.324          42.000  
  25219377.018      760073.402       -3905.360          43.000  
  24911641.084     -313922.038        1560.967          42.000  
 14 12 20  0  3 18.0000000  0 13G23G 2G 3G 1G20G32G 6G28G17G 9G10G11
                                G12
  22459925.296      -96533.706         445.258          43.000  
  24855929.310     -288849.624        1478.402          43.000  
  22132207.397      710295.786       -3651.563          43.000  
  23831608.631      652608.623       -3336.562          42.000  
  21174680.655      626602.213       -3232.981          42.000  
  25803112.104      888893.354       -4534.085          43.000  
  21602698.758     -147406.647         734.735          42.000  
  22639862.326      756876.962       -3886.200          42.000  
  20234159.307       68960.496        -406.034          43.000  
  22663872.814     -386931.064        1947.274          42.000  
  21986564.704     -445653.923        2241.696          42.000  
  25220120.764      763978.874       -3905.432          42.000  
  24911344.116     -315482.428        1560.612          43.000  
 14 12 20  0  3 19.0000000  0 13G23G 2G 3G 1G20G32G 6G28G17G 9G10G11
                                G12
  22459840.278      -96977.832         443.890          43.000  
  24855648.728     -290327.051        1476.831          43.000  
  22132903.190      713947.660       -3652.232          42.000  
  23832243.051      655945.565       -3337.107          42.000  
  21175295.897      629835.523       -3233.699          42.000  
  25803974.982      893427.561       -4534.224          42.000  
  21602559.558     -148140.941         734.098          43.000  
  22640602.320      760763.972       -3887.077          43.000  
  20234236.943       69366.959        -406.674          43.000  
  22663502.660     -388878.213        1946.522          42.000  
  21986138.762     -447895.238        2241.272          42.000  
  25220864.457      767884.456       -3905.986          42.000  
  24911048.126     -317042.317        1559.411          42.000  
 14 12 20  0  3 20.0000000  0 13G23G 2G 3G 1G20G32G 6G28G17G 9G10G11
                                G12
  22459755.907      -97421.723         443.556          42.000  
  24855367.849     -291804.767        1478.326          43.000  
  22133598.092      717599.519       -3651.828          42.000  
  23832878.902      659282.273       -3336.404          42.000  
  21175911.139      633068.895       -3233.422          42.000  
  25804838.157      897961.426       -4533.935          42.000  
  21602420.043     -148875.352         734.112          42.000  
  22641341.947      764650.930       -3887.205          43.000  
  20234314.439       69773.680        -406.580          42.000  
  22663132.383     -390825.366        1946.854          42.000  
  21985712.313     -450136.457        2241.917          42.000  
  25221608.674      771789.843       -3904.919          43.000  
  24910751.455     -318602.017        1559.542          43.000  
 14 12 20  0  3 21.0000000  0 13G23G 2G 3G 1G20G32G 6G28G17G 9G10G11
                                G12
  22459671.570      -97865.222         443.522          42.000  
  24855087.232     -293282.598        1477.387          43.000  
  22134293.780      721251.541       -3652.136          43.000  
  23833513.950      662618.919       -3336.788          42.000  
  21176526.347      636302.515       -3234.271          43.000  
  25805700.861      902495.173       -4534.106          42.000  
  21602280.005     -149609.694         734.420          42.000  
  22642081.645      768538.021       -3888.279          42.000  
  20234392.302       70180.792        -407.653          42.000  
  22662762.386     -392772.343        1946.429          42.000  
  21985286.720     -452377.430        2240.815          42.000  
  25222352.088      775695.181       -3905.539          43.000  
  24910454.836     -320161.368        1559.121          42.000  
 14 12 20  0  3 22.0000000  0 13G23G 2G 3G 1G20G32G 6G28G17G 9G10G11
                                G12
  22459587.931      -98307.899         442.125          42.000  
  24854806.092     -294760.073        1477.330          42.000  
  22134989.538      724904.178       -3653.207          43.000  
  23834149.382      665955.970       -3337.456          42.000  
  21177142.183      639536.827       -3234.139          43.000  
  25806563.705      907029.227       -4534.522          42.000  
  21602140.787     -150343.553         734.008          43.000  
  22642821.848      772425.705       -3888.009          42.000  
  20234470.357       70588.765        -408.496          42.000  
  22662392.040     -394718.700        1945.825          42.000  
  21984860.673     -454617.679        2239.794          43.000  
  25223095.467      779600.904       -3905.734          42.000  
  24910159.002     -321719.936        1557.984          43.000  
 14 12 20  0  3 23.0000000  0 13G23G 2G 3G 1G20G32G 6G28G17G 9G10G11
                                G12
  22459504.519      -98750.285         442.295          42.000  
  24854524.672     -296237.759        1477.780          42.000  
  22135685.452      728556.869       -3652.277          42.000  
  23834784.762      669292.869       -3336.910          42.000  
  21177757.896      642771.320       -3234.955          42.000  
  25807426.793      911563.040       -4533.418          42.000  
  21602001.343     -151077.427         733.685          42.000  
  22643561.563      776313.419       -3888.076          43.000  
  20234548.289       70997.073        -408.107          43.000  
  22662022.043     -396664.990        1945.961          42.000  
  21984435.202     -456857.736        2239.992          42.000  
  25223838.794      783506.522       -3905.152          42.000  
  24909862.279     -323278.241        1558.304          42.000  
 14 12 20  0  3 24.0000000  0 13G23G 2G 3G 1G20G32G 6G28G17G 9G10G11
                                G12
  22459420.513      -99192.467         441.486          42.000  
  24854244.020     -297715.757        1477.700          42.000  
  22136380.599      732209.535       -3653.502          42.000  
  23835420.229      672629.515       -3337.424          42.000  
  21178373.400      646005.846       -3235.239          42.000  
  25808289.671      916096.525       -4534.326          43.000  
  21601862.299     -151811.433         733.125          42.000  
  22644301.819      780201.077       -3888.219          42.000  
  20234626.327       71405.580        -408.841          43.000  
  22661652.134     -398611.292        1946.154          42.000  
  21984008.840     -459097.728        2239.604          42.000  
  25224581.598      787411.884       -3905.425          43.000  
  24909566.341     -324836.397        1557.472          42.000  
 14 12 20  0  3 25.0000000  0 13G23G 2G 3G 1G20G32G 6G28G17G 9G10G11
                                G12
  22459336.909      -99633.794         441.186          42.000  
  24853963.735     -299193.381        1477.191          42.000  
  22137075.903      735862.825       -3653.663          43.000  
  23836055.033      675966.585       -3336.735          43.000  
  21178989.969      649241.101       -3235.569          42.000  
  25809152.253      920630.328       -4534.361          42.000  
  21601721.912     -152544.911         733.390          42.000  
  22645041.865      784089.326       -3888.233          43.000  
  20234704.102       71814.988        -409.577          43.000  
  22661281.509     -400556.947        1945.307          42.000  
  21983583.055     -461336.974        2239.089          42.000  
  25225324.698      791317.681       -3906.242          42.000  
  24909270.176     -326393.714        1556.762          43.000  
 14 12 20  0  3 26.0000000  0 13G23G 2G 3G 1G20G32G 6G28G17G 9G10G11
                                G12
  22459253.480     -100074.943         441.373          42.000  
  24853682.647     -300671.307        1477.739          42.000  
  22137771.207      739516.088       -3653.102          43.000  
  23836690.745      679303.413       -3336.961          43.000  
  21179605.752      652476.420       -3235.038          42.000  
  25810015.218      925163.833       -4533.049          42.000  
  21601583.183     -153278.519         733.435          42.000  
  22645781.963      787977.516       -3888.262          42.000  
  20234782.157       72224.611        -409.408          43.000  
  22660912.000     -402502.616        1946.253          42.000  
  21983157.340     -463576.134        2239.198          42.000  
  25226067.955      795223.246       -3905.613          42.000  
  24908973.871     -327950.908        1557.249          42.000  
 14 12 20  0  3 27.0000000  0 13G23G 2G 3G 1G20G32G 6G28G17G 9G10G11
                                G12
  22459169.928     -100515.405         439.823          42.000  
  24853401.384     -302149.078        1477.307          42.000  
  22138466.162      743169.788       -3654.804          43.000  
  23837326.334      682640.450       -3338.124          42.000  
  21180222.024      655712.271       -3236.894          43.000  
  25810878.533      929697.443       -4534.318          42.000  
  21601443.511     -154011.798         732.047          42.000  
  22646522.411      791866.112       -3890.000          42.000  
  20234861.067       72634.904        -411.733          43.000  
  22660541.776     -404447.863        1944.719          43.000  
  21982731.310     -465814.758        2237.896          42.000  
  25226811.177      799129.043       -3906.481          42.000  
  24908678.020     -329507.453        1555.332          42.000  
 14 12 20  0  3 28.0000000  0 13G23G 2G 3G 1G20G32G 6G28G17G 9G10G11
                                G12
  22459086.813     -100955.066         439.746          43.000  
  24853120.610     -303626.514        1477.095          42.000  
  22139161.902      746824.090       -3654.348          43.000  
  23837961.208      685977.883       -3337.671          43.000  
  21180838.139      658948.786       -3236.785          42.000  
  25811741.708      934231.360       -4534.050          42.000  
  21601304.224     -154744.558         733.062          42.000  
  22647263.051      795755.276       -3889.556          42.000  
  20234939.715       73046.071        -411.038          43.000  
  22660172.059     -406392.480        1944.331          42.000  
  21982305.943     -468052.666        2237.327          42.000  
  25227555.376      803035.237       -3905.795          43.000  
  24908382.291     -331063.228        1555.409          42.000  
 14 12 20  0  3 29.0000000  0 13G23G 2G 3G 1G20G32G 6G28G17G 9G10G11
                                G12
  22459003.680     -101393.924         439.530          42.000  
  24852839.103     -305103.654        1478.249          43.000  
  22139857.014      750478.954       -3654.646          43.000  
  23838596.361      689315.664       -3336.999          42.000  
  21181454.934      662185.973       -3237.047          42.000  
  25812604.970      938765.543       -4534.024          42.000  
  21601165.686     -155476.863         732.126          42.000  
  22648003.847      799644.984       -3889.687          43.000  
  20235018.433       73458.043        -411.325          43.000  
  22659802.515     -408336.516        1944.309          42.000  
  21981879.547     -470289.901        2237.533          42.000  
  25228298.965      806941.801       -3906.229          42.000  
  24908086.248     -332618.232        1555.160          42.000  
 14 12 20  0  3 30.0000000  0 13G23G 2G 3G 1G20G32G 6G28G17G 9G10G11
                                G12
  22458920.704     -101832.330         437.787          42.000  
  24852558.172     -306580.849        1476.134          43.000  
  22140553.138      754134.046       -3654.837          43.000  
  23839232.404      692653.459       -3338.021          42.000  
  21182070.717      665423.465       -3238.271          42.000  
  25813468.355      943299.655       -4533.711          42.000  
  21601026.329     -156209.058         732.013          42.000  
  22648744.103      803534.870       -3890.274          43.000  
  20235096.610       73870.495        -412.680          43.000  
  22659432.780     -410280.318        1943.234          42.000  
  21981454.530     -472526.796        2236.624          42.000  
  25229042.711      810848.370       -3907.342          42.000  
  24907790.921     -334172.837        1554.422          42.000  
 14 12 20  0  3 31.0000000  0 13G23G 2G 3G 1G20G32G 6G28G17G 9G10G11
                                G12
  22458837.379     -102269.989         438.517          42.000  
  24852277.084     -308057.777        1476.746          42.000  
  22141249.036      757789.649       -3655.269          43.000  
  23839867.906      695991.550       -3337.926          42.000  
  21182686.902      668661.558       -3238.344          42.000  
  25814330.692      947833.961       -4533.974          42.000  
  21600888.176     -156940.828         732.383          42.000  
  22649484.376      807425.248       -3890.308          42.000  
  20235176.131       74283.715        -412.605          43.000  
  22659063.429     -412223.606        1943.436          42.000  
  21981029.059     -474763.075        2236.597          43.000  
  25229786.753      814755.273       -3905.781          42.000  
  24907496.099     -335726.748        1554.486          42.000  
 14 12 20  0  3 32.0000000  0 13G23G 2G 3G 1G20G32G 6G28G17G 9G10G11
                                G12
  22458754.561     -102707.316         436.081          43.000  
  24851996.467     -309534.869        1476.631          42.000  
  22141945.264      761445.356       -3656.752          43.000  
  23840503.583      699329.541       -3338.788          42.000  
  21183303.383      671899.864       -3239.463          42.000  
  25815193.658      952368.095       -4535.106          42.000  
  21600749.534     -157672.581         730.637          43.000  
  22650224.876      811315.725       -3891.157          42.000  
  20235255.163       74697.296        -414.137          43.000  
  22658693.798     -414166.750        1942.592          42.000  
  21980603.413     -476999.138        2234.953          42.000  
  25230530.639      818662.057       -3907.954          42.000  
  24907201.191     -337280.354        1553.072          42.000  
 14 12 20  0  3 33.0000000  0 13G23G 2G 3G 1G20G32G 6G28G17G 9G10G11
                                G12
  22458672.248     -103144.049         436.918          42.000  
  24851715.710     -311011.864        1476.770          42.000  
  22142641.284      765101.437       -3655.955          43.000  
  23841139.050      702667.689       -3337.959          42.000  
  21183919.760      675138.612       -3238.663          42.000  
  25816057.269      956902.300       -4533.835          42.000  
  21600610.473     -158404.077         731.876          42.000  
  22650965.917      815206.513       -3890.113          42.000  
  20235333.985       75111.501        -413.613          43.000  
  22658324.238     -416109.526        1942.463          42.000  
  21980178.099     -479234.696        2235.402          42.000  
  25231274.332      822569.043       -3906.973          42.000  
  24906905.392     -338833.408        1552.431          42.000  
 14 12 20  0  3 34.0000000  0 13G23G 2G 3G 1G20G32G 6G28G17G 9G10G11
                                G12
  22458589.499     -103580.208         435.308          42.000  
  24851434.832     -312488.801        1475.614          42.000  
  22143337.355      768757.859       -3657.151          43.000  
  23841774.796      706005.961       -3338.421          42.000  
  21184536.189      678377.816       -3239.591          42.000  
  25816919.920      961436.545       -4534.844          42.000  
  21600471.412     -159135.333         730.220          42.000  
  22651706.609      819097.635       -3891.048          42.000  
  20235413.663       75526.292        -415.319          43.000  
  22657954.921     -418051.947        1941.774          42.000  
  21979753.099     -481469.813        2235.076          42.000  
  25232017.833      826476.141       -3907.755          42.000  
  24906610.727     -340385.901        1552.300          42.000  
 14 12 20  0  3 35.0000000  0 13G23G 2G 3G 1G20G32G 6G28G17G 9G10G11
                                G12
  22458506.593     -104015.677         435.547          42.000  
  24851154.791     -313965.515        1475.949          43.000  
  22144033.131      772414.740       -3656.869          43.000  
  23842410.246      709344.462       -3338.809          42.000  
  21185152.792      681617.554       -3239.899          42.000  
  25817783.758      965970.941       -4534.133          42.000  
  21600332.665     -159866.221         730.666          42.000  
  22652447.510      822989.192       -3891.107          42.000  
  20235492.242       75941.820        -415.358          43.000  
  22657586.355     -419993.887        1941.494          43.000  
  21979327.680     -483704.370        2234.240          42.000  
  25232761.265      830383.516       -3907.055          42.000  
  24906315.365     -341937.778        1551.345          42.000  
 14 12 20  0  3 36.0000000  0 13G23G 2G 3G 1G20G32G 6G28G17G 9G10G11
                                G12
  22458423.408     -104450.722         435.270          42.000  
  24850873.755     -315442.327        1477.355          42.000  
  22144729.115      776071.828       -3656.863          43.000  
  23843045.957      712682.987       -3338.332          42.000  
  21185770.094      684857.594       -3239.415          42.000  
  25818646.916      970505.243       -4534.327          42.000  
  21600193.727     -160596.989         731.379          42.000  
  22653187.557      826880.897       -3892.577          42.000  
  20235571.483       76357.772        -415.602          43.000  
  22657216.986     -421935.608        1942.914          42.000  
  21978903.256     -485938.593        2234.539          42.000  
  25233505.098      834290.896       -3906.492          42.000  
  24906019.758     -343489.242        1552.597          42.000  
 14 12 20  0  3 37.0000000  0 13G23G 2G 3G 1G20G32G 6G28G17G 9G10G11
                                G12
  22458341.113     -104885.315         434.133          42.000  
  24850593.277     -316919.150        1476.397          43.000  
  22145425.169      779729.150       -3658.091          42.000  
  23843681.913      716021.507       -3338.809          42.000  
  21186387.116      688097.955       -3240.406          42.000  
  25819509.672      975039.486       -4534.465          42.000  
  21600054.439     -161327.656         730.620          42.000  
  22653928.737      830772.815       -3891.846          42.000  
  20235651.126       76774.226        -417.150          43.000  
  22656847.391     -423877.086        1941.142          42.000  
  21978478.413     -488172.482        2233.468          42.000  
  25234249.315      838198.273       -3908.185          43.000  
  24905724.553     -345040.304        1550.946          42.000  
 14 12 20  0  3 38.0000000  0 13G23G 2G 3G 1G20G32G 6G28G17G 9G10G11
                                G12
  22458258.503     -105319.211         434.171          43.000  
  24850312.661     -318395.817        1476.049          42.000  
  22146121.974      783386.922       -3657.416          43.000  
  23844317.677      719360.284       -3338.425          42.000  
  21187004.574      691338.837       -3240.659          42.000  
  25820372.795      979573.865       -4533.933          42.000  
  21599915.343     -162057.965         730.086          42.000  
  22654669.673      834665.142       -3892.474          42.000  
  20235730.751       77191.371        -417.672          43.000  
  22656478.546     -425818.110        1940.461          42.000  
  21978053.273     -490405.806        2232.982          42.000  
  25234993.392      842105.946       -3907.627          43.000  
  24905429.801     -346590.716        1549.906          42.000  
 14 12 20  0  3 39.0000000  0 13G23G 2G 3G 1G20G32G 6G28G17G 9G10G11
                                G12
  22458176.976     -105752.432         432.425          42.000  
  24850032.218     -319872.284        1476.760          43.000  
  22146818.482      787045.134       -3658.578          43.000  
  23844953.336      722699.310       -3338.790          42.000  
  21187622.260      694580.287       -3241.703          42.000  
  25821236.110      984108.400       -4534.426          42.000  
  21599777.260     -162787.907         729.652          42.000  
  22655410.906      838557.921       -3892.163          42.000  
  20235810.673       77609.233        -418.238          43.000  
  22656109.805     -427758.656        1939.932          42.000  
  21977628.692     -492638.577        2232.729          42.000  
  25235736.911      846013.843       -3907.797          43.000  
  24905135.277     -348140.475        1549.395          42.000  
 14 12 20  0  3 40.0000000  0 13G23G 2G 3G 1G20G32G 6G28G17G 9G10G11
                                G12
  22458094.175     -106185.284         433.228          43.000  
  24849751.828     -321348.880        1476.843          43.000  
  22147514.938      790703.497       -3658.744          43.000  
  23845588.768      726038.230       -3339.021          43.000  
  21188239.212      697821.933       -3242.005          42.000  
  25822099.860      988642.769       -4534.309          42.000  
  21599638.321     -163517.819         729.149          42.000  
  22656152.052      842450.784       -3893.350          42.000  
  20235890.822       78027.477        -418.463          43.000  
  22655740.890     -429699.050        1940.574          42.000  
  21977204.145     -494871.086        2232.007          43.000  
  25236481.180      849921.676       -3907.805          43.000  
  24904840.857     -349689.934        1549.207          42.000  
 14 12 20  0  3 41.0000000  0 13G23G 2G 3G 1G20G32G 6G28G17G 9G10G11
                                G12
  22458012.054     -106617.456         432.127          42.000  
  24849471.141     -322825.290        1476.085          43.000  
  22148211.114      794362.335       -3658.985          43.000  
  23846224.689      729377.418       -3338.839          42.000  
  21188856.758      701064.155       -3242.480          42.000  
  25822962.477      993177.311       -4534.344          42.000  
  21599499.749     -164247.368         729.801          42.000  
  22656893.739      846344.093       -3893.255          43.000  
  20235970.744       78446.463        -418.666          43.000  
  22655371.905     -431638.965        1940.471          43.000  
  21976779.512     -497103.017        2232.175          43.000  
  25237225.118      853829.785       -3908.080          43.000  
  24904546.314     -351238.717        1549.034          42.000  
 14 12 20  0  3 42.0000000  0 13G23G 2G 3G 1G20G32G 6G28G17G 9G10G11
                                G12
  22457930.806     -107049.397         432.917          42.000  
  24849190.175     -324301.988        1476.776          43.000  
  22148907.465      798021.130       -3658.804          42.000  
  23846860.993      732716.372       -3338.441          42.000  
  21189473.658      704306.440       -3242.346          42.000  
  25823825.251      997711.535       -4534.421          42.000  
  21599361.282     -164977.021         729.789          43.000  
  22657634.902      850237.361       -3892.820          42.000  
  20236050.997       78865.662        -418.749          43.000  
  22655002.693     -433578.882        1939.390          43.000  
  21976354.861     -499334.852        2231.975          42.000  
  25237968.637      857737.663       -3908.004          43.000  
  24904251.737     -352787.333        1548.237          43.000  
 14 12 20  0  3 43.0000000  0 13G23G 2G 3G 1G20G32G 6G28G17G 9G10G11
                                G12
  22457849.104     -107480.470         430.729          42.000  
  24848909.122     -325778.280        1476.711          42.000  
  22149604.444      801680.600       -3659.181          42.000  
  23847496.653      736055.769       -3339.159          42.000  
  21190090.506      707549.491       -3243.428          42.000  
  25824688.164     1002246.122       -4534.327          42.000  
  21599222.832     -165706.122         728.924          42.000  
  22658375.611      854131.250       -3893.955          42.000  
  20236131.722       79285.781        -420.154          43.000  
  22654634.215     -435518.113        1939.009          42.000  
  21975930.157     -501565.913        2231.153          42.000  
  25238712.906      861646.003       -3907.954          42.000  
  24903957.090     -354335.097        1548.028          42.000  
 14 12 20  0  3 44.0000000  0 13G23G 2G 3G 1G20G32G 6G28G17G 9G10G11
                                G12
  22457767.315     -107911.024         430.021          42.000  
  24848628.243     -327254.570        1476.439          42.000  
  22150301.144      805340.340       -3659.967          42.000  
  23848132.172      739395.224       -3340.003          42.000  
  21190708.278      710792.887       -3243.065          42.000  
  25825551.234     1006780.681       -4534.640          42.000  
  21599084.225     -166435.042         729.207          42.000  
  22659117.141      858025.393       -3893.935          42.000  
  20236211.854       79706.440        -420.685          43.000  
  22654265.212     -437457.065        1938.803          42.000  
  21975506.466     -503796.594        2230.349          42.000  
  25239456.303      865554.413       -3907.845          42.000  
  24903662.932     -355882.390        1547.025          42.000  
 14 12 20  0  3 45.0000000  0 13G23G 2G 3G 1G20G32G 6G28G17G 9G10G11
                                G12
  22457685.700     -108340.476         429.658          43.000  
  24848347.993     -328730.273        1475.309          42.000  
  22150998.594      809000.952       -3660.323          42.000  
  23848768.494      742735.360       -3339.771          43.000  
  21191326.400      714037.259       -3244.184          42.000  
  25826414.217     1011315.802       -4534.933          42.000  
  21598945.862     -167163.190         728.500          42.000  
  22659858.984      861920.347       -3895.280          42.000  
  20236292.212       80128.214        -421.569          43.000  
  22653897.187     -439395.140        1937.824          42.000  
  21975082.565     -506026.298        2229.600          42.000  
  25240200.555      869463.509       -3909.338          42.000  
  24903368.756     -357428.640        1545.758          42.000  
 14 12 20  0  3 46.0000000  0 13G23G 2G 3G 1G20G32G 6G28G17G 9G10G11
                                G12
  22457604.138     -108769.713         429.381          42.000  
  24848067.446     -330206.224        1476.038          42.000  
  22151694.945      812661.571       -3659.700          42.000  
  23849404.380      746075.249       -3339.822          42.000  
  21191943.614      717281.709       -3243.896          42.000  
  25827277.515     1015850.619       -4534.030          42.000  
  21598808.197     -167891.443         728.628          42.000  
  22660600.427      865815.293       -3894.976          42.000  
  20236372.518       80550.219        -422.047          43.000  
  22653529.040     -441333.185        1938.404          42.000  
  21974658.909     -508255.870        2229.962          42.000  
  25240944.597      873372.379       -3908.636          42.000  
  24903075.069     -358974.692        1546.713          42.000  
 14 12 20  0  3 47.0000000  0 13G23G 2G 3G 1G20G32G 6G28G17G 9G10G11
                                G12
  22457522.680     -109198.474         428.827          43.000  
  24847787.125     -331682.222        1475.897          43.000  
  22152392.465      816322.414       -3660.758          42.000  
  23850039.254      749415.185       -3339.492          42.000  
  21192562.050      720526.488       -3244.789          43.000  
  25828141.196     1020385.401       -4534.444          42.000  
  21598670.009     -168619.554         728.301          42.000  
  22661341.799      869710.446       -3895.394          43.000  
  20236453.312       80972.751        -422.489          43.000  
  22653160.544     -443270.979        1937.553          42.000  
  21974234.624     -510485.101        2228.693          42.000  
  25241688.744      877281.320       -3908.327          42.000  
  24902781.155     -360520.307        1545.205          43.000  
 14 12 20  0  3 48.0000000  0 13G23G 2G 3G 1G20G32G 6G28G17G 9G10G11
                                G12
  22457440.926     -109626.679         427.723          43.000  
  24847506.351     -333158.139        1475.695          42.000  
  22153089.654      819983.596       -3661.047          42.000  
  23850674.704      752755.250       -3340.277          42.000  
  21193180.172      723771.704       -3245.448          42.000  
  25829004.144     1024920.201       -4534.187          42.000  
  21598531.524     -169347.425         727.860          42.000  
  22662083.329      873605.907       -3896.236          42.000  
  20236534.089       81395.857        -423.926          43.000  
  22652792.152     -445208.426        1937.148          42.000  
  21973811.666     -512713.870        2228.653          42.000  
  25242432.123      881190.364       -3909.348          42.000  
  24902487.852     -362065.385        1544.819          43.000  
 14 12 20  0  3 49.0000000  0 13G23G 2G 3G 1G20G32G 6G28G17G 9G10G11
                                G12
  22457359.311     -110054.157         428.055          43.000  
  24847225.577     -334633.832        1475.979          42.000  
  22153786.668      823645.264       -3661.999          42.000  
  23851310.851      756095.592       -3340.314          42.000  
  21193798.223      727017.484       -3245.935          42.000  
  25829866.917     1029455.191       -4534.741          42.000  
  21598393.650     -170074.914         727.411          43.000  
  22662824.980      877501.821       -3896.131          42.000  
  20236615.791       81819.712        -424.653          43.000  
  22652424.092     -447145.358        1936.608          42.000  
  21973388.167     -514942.049        2228.688          42.000  
  25243176.742      885099.715       -3909.340          43.000  
  24902194.391     -363609.809        1544.746          42.000  
 14 12 20  0  3 50.0000000  0 13G23G 2G 3G 1G20G32G 6G28G17G 9G10G11
                                G12
  22457279.162     -110481.088         427.150          42.000  
  24846944.856     -336109.500        1475.510          42.000  
  22154483.560      827307.259       -3662.131          42.000  
  23851946.580      759436.024       -3339.992          42.000  
  21194415.909      730263.673       -3246.122          42.000  
  25830730.668     1033990.175       -4535.332          42.000  
  21598255.793     -170802.181         726.778          42.000  
  22663566.807      881398.018       -3896.450          42.000  
  20236696.778       82244.137        -424.425          42.000  
  22652055.282     -449081.964        1936.898          42.000  
  21972964.510     -517169.798        2228.214          42.000  
  25243921.447      889009.167       -3909.220          43.000  
  24901901.542     -365153.733        1543.964          43.000  
 14 12 20  0  3 51.0000000  0 13G23G 2G 3G 1G20G32G 6G28G17G 9G10G11
                                G12
  22457198.176     -110907.608         426.880          42.000  
  24846664.902     -337585.223        1476.215          42.000  
  22155181.115      830969.424       -3662.015          42.000  
  23852582.920      762776.432       -3339.406          42.000  
  21195034.310      733510.131       -3246.057          42.000  
  25831593.564     1038525.070       -4533.992          42.000  
  21598117.256     -171529.362         727.337          42.000  
  22664308.860      885294.378       -3895.720          42.000  
  20236777.904       82669.007        -424.939          42.000  
  22651687.047     -451018.377        1936.321          42.000  
  21972540.732     -519397.256        2227.899          42.000  
  25244665.594      892918.616       -3909.106          42.000  
  24901607.628     -366697.253        1544.246          42.000  
 14 12 20  0  3 52.0000000  0 13G23G 2G 3G 1G20G32G 6G28G17G 9G10G11
                                G12
  22457117.311     -111333.460         425.643          42.000  
  24846384.407     -339060.801        1475.271          42.000  
  22155878.565      834632.045       -3662.541          42.000  
  23853219.364      766117.079       -3340.196          42.000  
  21195652.396      736757.125       -3247.135          42.000  
  25832456.792     1043060.103       -4534.434          42.000  
  21597979.067     -172256.204         726.988          42.000  
  22665050.337      889191.142       -3896.415          42.000  
  20236859.309       83094.562        -425.624          42.000  
  22651318.586     -452954.330        1935.875          42.000  
  21972116.866     -521624.149        2226.701          42.000  
  25245408.991      896828.301       -3909.255          42.000  
  24901314.534     -368240.157        1542.569          42.000  
 14 12 20  0  3 53.0000000  0 13G23G 2G 3G 1G20G32G 6G28G17G 9G10G11
                                G12
  22457037.006     -111758.265         425.130          42.000  
  24846103.685     -340535.808        1475.222          42.000  
  22156575.841      838295.478       -3663.259          42.000  
  23853854.622      769458.308       -3340.860          42.000  
  21196270.902      740005.026       -3248.141          42.000  
  25833320.263     1047595.658       -4534.632          42.000  
  21597841.560     -172982.317         726.496          42.000  
  22665792.442      893088.692       -3897.849          42.000  
  20236940.261       83521.202        -426.969          42.000  
  22650950.526     -454889.431        1935.396          42.000  
  21971693.838     -523850.125        2225.757          42.000  
  25246153.295      900738.613       -3909.488          42.000  
  24901020.986     -369782.036        1542.204          42.000  
 14 12 20  0  3 54.0000000  0 13G23G 2G 3G 1G20G32G 6G28G17G 9G10G11
                                G12
  22456956.351     -112182.951         424.853          42.000  
  24845823.260     -342011.213        1475.642          42.000  
  22157272.140      841958.791       -3663.083          42.000  
  23854490.316      772799.217       -3340.694          42.000  
  21196888.919      743252.890       -3247.939          42.000  
  25834183.857     1052130.769       -4535.011          42.000  
  21597703.773     -173708.670         726.513          42.000  
  22666534.565      896986.088       -3896.741          42.000  
  20237021.387       83947.956        -427.037          42.000  
  22650581.942     -456824.663        1934.978          42.000  
  21971270.635     -526076.099        2226.006          42.000  
  25246897.302      904648.580       -3910.264          42.000  
  24900728.015     -371323.879        1541.438          42.000  
 14 12 20  0  3 55.0000000  0 13G23G 2G 3G 1G20G32G 6G28G17G 9G10G11
                                G12
  22456875.853     -112607.103         424.646          42.000  
  24845541.963     -343486.596        1476.047          42.000  
  22157969.171      845622.375       -3663.347          42.000  
  23855126.097      776140.211       -3340.799          42.000  
  21197506.744      746501.135       -3248.125          42.000  
  25835046.334     1056665.880       -4535.198          42.000  
  21597565.881     -174434.814         725.869          42.000  
  22667276.705      900883.750       -3897.642          42.000  
  20237103.507       84375.276        -426.987          42.000  
  22650214.249     -458759.560        1935.069          42.000  
  21970847.781     -528301.657        2225.457          42.000  
  25247641.746      908558.646       -3909.669          42.000  
  24900434.973     -372865.214        1541.241          42.000  
 14 12 20  0  3 56.0000000  0 13G23G 2G 3G 1G20G32G 6G28G17G 9G10G11
                                G12
  22456795.512     -113030.942         423.230          42.000  
  24845261.189     -344962.122        1474.654          42.000  
  22158666.691      849286.092       -3664.546          42.000  
  23855761.686      779481.116       -3341.056          42.000  
  21198124.586      749749.594       -3248.714          42.000  
  25835909.265     1061200.830       -4534.902          42.000  
  21597427.797     -175160.939         725.847          42.000  
  22668019.038      904781.497       -3898.514          42.000  
  20237184.965       84802.946        -428.609          42.000  
  22649846.904     -460694.337        1933.968          42.000  
  21970423.828     -530526.990        2224.457          42.000  
  25248386.120      912468.636       -3910.709          42.000  
  24900141.932     -374406.250        1540.353          42.000  
 14 12 20  0  3 57.0000000  0 13G23G 2G 3G 1G20G32G 6G28G17G 9G10G11
                                G12
  22456715.712     -113453.990         423.382          42.000  
  24844980.816     -346437.380        1475.542          42.000  
  22159364.421      852950.356       -3663.936          42.000  
  23856397.869      782822.339       -3340.670          42.000  
  21198743.179      752998.688       -3248.413          42.000  
  25836772.457     1065735.989       -4534.640          42.000  
  21597289.505     -175886.618         726.059          42.000  
  22668760.602      908679.750       -3897.489          42.000  
  20237266.929       85231.438        -428.198          42.000  
  22649479.071     -462628.551        1935.199          42.000  
  21970001.917     -532751.664        2224.597          42.000  
  25249130.756      916378.963       -3909.651          42.000  
  24899848.925     -375946.532        1540.896          42.000  
 14 12 20  0  3 58.0000000  0 13G23G 2G 3G 1G20G32G 6G28G17G 9G10G11
                                G12
  22456636.523     -113876.716         421.691          42.000  
  24844700.810     -347912.801        1474.707          42.000  
  22160061.906      856614.717       -3664.982          42.000  
  23857034.558      786163.463       -3341.825          42.000  
  21199361.231      756247.958       -3249.559          42.000  
  25837635.702     1070270.973       -4535.215          42.000  
  21597151.403     -176612.295         725.182          42.000  
  22669502.795      912578.100       -3898.798          42.000  
  20237347.898       85660.271        -430.119          42.000  
  22649110.750     -464562.634        1933.578          42.000  
  21969578.208     -534976.122        2223.653          42.000  
  25249875.339      920289.208       -3910.058          42.000  
  24899556.198     -377486.532        1539.242          42.000  
 14 12 20  0  3 59.0000000  0 13G23G 2G 3G 1G20G32G 6G28G17G 9G10G11
                                G12
  22456556.270     -114298.782         421.124          42.000  
  24844420.437     -349388.078        1474.699          43.000  
  22160759.880      860279.494       -3665.265          42.000  
  23857670.740      789504.777       -3341.575          42.000  
  21199979.823      759497.743       -3250.516          42.000  
  25838498.895     1074806.073       -4535.531          42.000  
  21597013.809     -177337.658         725.323          42.000  
  22670244.638      916476.777       -3899.599          42.000  
  20237430.437       86089.791        -430.116          42.000  
  22648743.981     -466496.298        1933.358          42.000  
  21969155.006     -537200.054        2223.282          42.000  
  25250620.010      924199.652       -3910.281          42.000  
  24899262.894     -379025.925        1538.589          43.000  
 14 12 20  0  4  0.0000000  0 13G23G 2G 3G 1G20G32G 6G28G17G 9G10G11
                                G12
  22456476.348     -114720.362         421.025          42.000  
  24844140.030     -350863.363        1475.214          42.000  
  22161457.696      863944.525       -3664.931          42.000  
  23858307.185      792846.149       -3341.462          42.000  
  21200599.097      762747.867       -3250.091          42.000  
  25839363.012     1079341.113       -4534.707          42.000  
  21596875.917     -178062.844         725.751          42.000  
  22670987.372      920375.747       -3898.467          42.000  
  20237512.523       86519.809        -430.537          42.000  
  22648376.601     -468429.681        1933.563          42.000  
  21968732.222     -539423.610        2223.631          42.000  
  25251364.366      928110.152       -3910.769          42.000  
  24898970.568     -380564.862        1539.191          42.000  
 14 12 20  0  4  1.0000000  0 13G23G 2G 3G 1G20G32G 6G28G17G 9G10G11
                                G12
  22456396.356     -115141.023         420.566          43.000  
  24843859.483     -352338.232        1474.668          43.000  
  22162155.251      867610.240       -3665.785          43.000  
  23858943.158      796187.983       -3341.247          43.000  
  21201218.161      765998.772       -3250.709          42.000  
  25840226.501     1083876.556       -4535.321          42.000  
  21596737.903     -178787.482         724.638          43.000  
  22671730.786      924275.343       -3899.554          43.000  
  20237594.365       86950.778        -431.373          43.000  
  22648008.367     -470362.350        1933.108          42.000  
  21968309.630     -541646.370        2222.619          42.000  
  25252108.862      932021.130       -3911.010          43.000  
  24898677.998     -382102.926        1537.988          43.000  
 14 12 20  0  4  2.0000000  0 13G23G 2G 3G 1G20G32G 6G28G17G 9G10G11
                                G12
  22456316.067     -115561.301         419.217          43.000  
  24843579.040     -353813.197        1474.919          43.000  
  22162853.522      871276.114       -3666.209          43.000  
  23859579.602      799529.764       -3342.424          43.000  
  21201837.329      769249.930       -3251.871          43.000  
  25841089.467     1088411.837       -4535.348          43.000  
  21596600.919     -179512.020         724.070          43.000  
  22672472.630      928175.054       -3900.679          42.000  
  20237676.869       87382.153        -432.945          43.000  
  22647640.970     -472294.877        1931.781          42.000  
  21967886.933     -543868.857        2221.785          42.000  
  25252853.655      935932.074       -3911.458          43.000  
  24898385.829     -383640.646        1536.623          43.000  
 14 12 20  0  4  3.0000000  0 13G23G 2G 3G 1G20G32G 6G28G17G 9G10G11
                                G12
  22456236.250     -115980.663         419.990          42.000  
  24843298.336     -355287.762        1475.307          43.000  
  22163551.880      874942.669       -3666.370          43.000  
  23860215.628      802872.028       -3341.738          43.000  
  21202456.428      772501.846       -3251.402          43.000  
  25841953.497     1092947.517       -4534.862          43.000  
  21596463.464     -180235.997         724.248          43.000  
  22673214.910      932075.432       -3900.205          43.000  
  20237759.636       87814.484        -432.249          43.000  
  22647273.591     -474226.668        1932.341          42.000  
  21967464.673     -546090.538        2221.779          43.000  
  25253598.029      939843.523       -3910.852          43.000  
  24898093.782     -385177.485        1537.219          42.000  
 14 12 20  0  4  4.0000000  0 13G23G 2G 3G 1G20G32G 6G28G17G 9G10G11
                                G12
  22456156.904     -116399.421         417.871          43.000  
  24843017.824     -356762.223        1473.985          42.000  
  22164249.627      878609.593       -3666.893          43.000  
  23860851.828      806214.439       -3343.462          43.000  
  21203075.963      775754.216       -3252.954          42.000  
  25842816.445     1097483.251       -4535.394          42.000  
  21596325.851     -180959.703         723.296          43.000  
  22673957.940      935976.130       -3902.099          43.000  
  20237842.158       88247.423        -433.660          43.000  
  22646906.141     -476158.097        1930.982          42.000  
  21967041.784     -548311.752        2220.596          42.000  
  25254342.246      943755.113       -3911.599          42.000  
  24897801.683     -386713.755        1535.700          42.000  
 14 12 20  0  4  5.0000000  0 13G23G 2G 3G 1G20G32G 6G28G17G 9G10G11
                                G12
  22456077.662     -116817.477         418.329          42.000  
  24842737.661     -358236.470        1474.202          42.000  
  22164947.548      882276.980       -3667.300          42.000  
  23861488.551      809557.117       -3342.548          42.000  
  21203695.271      779007.167       -3252.959          42.000  
  25843680.161     1102019.152       -4536.472          42.000  
  21596188.797     -181683.030         723.441          42.000  
  22674701.127      939877.288       -3900.980          42.000  
  20237924.959       88681.096        -434.089          42.000  
  22646538.675     -478089.024        1930.494          42.000  
  21966619.890     -550532.354        2220.663          42.000  
  25255086.864      947666.982       -3912.146          42.000  
  24897510.107     -388249.372        1535.710          42.000  
 14 12 20  0  4  6.0000000  0 13G23G 2G 3G 1G20G32G 6G28G17G 9G10G11
                                G12
  22455999.241     -117235.051         417.224          42.000  
  24842457.532     -359710.722        1474.035          42.000  
  22165645.766      885944.633       -3667.752          42.000  
  23862124.158      812899.828       -3342.795          42.000  
  21204314.161      782260.457       -3253.680          42.000  
  25844543.406     1106555.030       -4536.015          42.000  
  21596051.307     -182406.181         723.465          42.000  
  22675443.809      943778.672       -3901.224          42.000  
  20238008.772       89115.277        -434.635          42.000  
  22646172.063     -480019.654        1930.704          42.000  
  21966197.735     -552752.596        2219.988          42.000  
  25255831.552      951578.908       -3912.458          42.000  
  24897218.183     -389784.517        1534.984          42.000  
 14 12 20  0  4  7.0000000  0 13G23G 2G 3G 1G20G32G 6G28G17G 9G10G11
                                G12
  22455920.296     -117651.960         416.600          42.000  
  24842177.229     -361184.807        1475.011          42.000  
  22166343.880      889612.736       -3667.859          43.000  
  23862760.759      816242.783       -3342.992          42.000  
  21204933.644      785514.271       -3254.229          42.000  
  25845407.401     1111091.053       -4536.455          43.000  
  21595914.724     -183128.995         723.058          42.000  
  22676186.141      947680.458       -3902.672          42.000  
  20238091.120       89550.171        -434.760          42.000  
  22645805.382     -481949.842        1930.242          42.000  
  21965775.893     -554972.275        2219.920          43.000  
  25256576.205      955491.083       -3912.078          42.000  
  24896926.171     -391319.039        1534.565          43.000  
 14 12 20  0  4  8.0000000  0 13G23G 2G 3G 1G20G32G 6G28G17G 9G10G11
                                G12
  22455840.514     -118068.201         415.906          42.000  
  24841897.729     -362658.781        1473.209          42.000  
  22167042.866      893281.216       -3668.861          43.000  
  23863396.994      819585.928       -3343.341          42.000  
  21205553.126      788768.577       -3254.681          42.000  
  25846271.309     1115627.154       -4536.816          42.000  
  21595777.391     -183851.517         722.174          42.000  
  22676929.206      951582.616       -3902.001          42.000  
  20238174.497       89985.714        -435.815          43.000  
  22645438.177     -483879.618        1928.773          42.000  
  21965353.458     -557191.449        2218.985          43.000  
  25257321.208      959403.436       -3913.105          42.000  
  24896634.996     -392852.985        1533.212          42.000  
 14 12 20  0  4  9.0000000  0 13G23G 2G 3G 1G20G32G 6G28G17G 9G10G11
                                G12
  22455762.162     -118484.051         415.748          43.000  
  24841616.973     -364132.814        1473.645          42.000  
  22167741.433      896949.905       -3668.416          43.000  
  23864033.508      822929.045       -3343.634          43.000  
  21206172.609      792023.153       -3254.917          43.000  
  25847135.182     1120163.159       -4535.447          43.000  
  21595639.517     -184573.938         721.911          43.000  
  22677671.643      955484.932       -3902.622          42.000  
  20238257.316       90421.692        -436.765          43.000  
  22645071.792     -485809.176        1928.467          42.000  
  21964931.669     -559410.313        2218.713          42.000  
  25258065.773      963315.817       -3912.447          42.000  
  24896343.473     -394386.522        1533.427          42.000  
 14 12 20  0  4 10.0000000  0 13G23G 2G 3G 1G20G32G 6G28G17G 9G10G11
                                G12
  22455682.589     -118899.677         415.404          43.000  
  24841336.077     -365607.128        1475.136          42.000  
  22168440.139      900618.559       -3668.400          43.000  
  23864669.586      826271.933       -3342.499          42.000  
  21206793.034      795277.817       -3254.190          43.000  
  25847998.130     1124698.828       -4534.894          43.000  
  21595501.555     -185296.495         722.655          42.000  
  22678414.342      959387.190       -3902.571          42.000  
  20238340.553       90857.919        -435.995          43.000  
  22644704.273     -487738.728        1929.344          42.000  
  21964509.478     -561629.092        2218.713          43.000  
  25258810.531      967227.953       -3911.809          42.000  
  24896051.932     -395919.905        1532.889          42.000  
 14 12 20  0  4 11.0000000  0 13G23G 2G 3G 1G20G32G 6G28G17G 9G10G11
                                G12
  22455604.343     -119314.969         415.483          42.000  
  24841056.315     -367081.619        1475.251          42.000  
  22169138.357      904287.313       -3668.271          43.000  
  23865305.874      829614.716       -3341.902          42.000  
  21207411.993      798532.652       -3254.331          43.000  
  25848861.253     1129234.316       -4534.430          42.000  
  21595364.327     -186019.032         722.995          42.000  
  22679157.110      963289.540       -3901.343          43.000  
  20238423.547       91294.503        -436.299          43.000  
  22644336.893     -489668.164        1930.262          42.000  
  21964087.724     -563847.630        2219.163          42.000  
  25259555.010      971139.989       -3912.313          43.000  
  24895760.444     -397452.985        1533.786          42.000  
 14 12 20  0  4 12.0000000  0 13G23G 2G 3G 1G20G32G 6G28G17G 9G10G11
                                G12
  22455525.171     -119729.689         414.165          43.000  
  24840776.221     -368556.034        1474.123          42.000  
  22169836.733      907956.425       -3669.643          43.000  
  23865942.789      832957.628       -3343.111          42.000  
  21208031.982      801787.930       -3254.595          42.000  
  25849724.637     1133769.840       -4536.034          43.000  
  21595226.906     -186741.314         721.606          42.000  
  22679900.367      967192.174       -3903.144          42.000  
  20238506.679       91731.681        -437.807          43.000  
  22643969.950     -491597.240        1928.585          42.000  
  21963665.865     -566065.718        2217.673          42.000  
  25260299.506      975052.166       -3912.492          42.000  
  24895469.636     -398985.507        1532.024          42.000  
 14 12 20  0  4 13.0000000  0 13G23G 2G 3G 1G20G32G 6G28G17G 9G10G11
                                G12
  22455447.134     -120143.699         413.653          43.000  
  24840496.564     -370030.231        1474.317          43.000  
  22170535.038      911625.989       -3670.125          43.000  
  23866579.495      836300.802       -3343.287          43.000  
  21208651.290      805043.752       -3255.991          42.000  
  25850588.196     1138305.525       -4536.493          43.000  
  21595089.364     -187463.232         721.091          43.000  
  22680643.066      971095.259       -3903.524          42.000  
  20238591.034       92169.597        -438.014          43.000  
  22643603.059     -493525.813        1928.672          42.000  
  21963243.989     -568283.226        2217.107          42.000  
  25261044.089      978964.629       -3912.859          43.000  
  24895178.078     -400517.383        1532.492          43.000  
 14 12 20  0  4 14.0000000  0 13G23G 2G 3G 1G20G32G 6G28G17G 9G10G11
                                G12
  22455368.590     -120556.857         412.441          42.000  
  24840216.418     -371504.079        1473.489          42.000  
  22171233.884      915296.184       -3670.233          43.000  
  23867216.027      839644.381       -3343.699          42.000  
  21209270.982      808300.303       -3256.673          42.000  
  25851452.226     1142841.550       -4536.165          43.000  
  21594952.728     -188184.629         721.074          42.000  
  22681386.672      974998.940       -3904.150          43.000  
  20238674.969       92608.397        -439.262          43.000  
  22643236.657     -495453.750        1927.839          42.000  
  21962822.234     -570499.986        2216.682          42.000  
  25261788.812      982877.501       -3912.509          43.000  
  24894887.514     -402048.456        1530.428          42.000  
 14 12 20  0  4 15.0000000  0 13G23G 2G 3G 1G20G32G 6G28G17G 9G10G11
                                G12
  22455290.937     -120969.532         412.038          43.000  
  24839936.133     -372977.949        1473.896          42.000  
  22171932.731      918966.640       -3670.933          43.000  
  23867852.873      842988.008       -3343.593          43.000  
  21209890.535      811557.198       -3257.231          43.000  
  25852315.261     1147377.530       -4535.665          43.000  
  21594815.779     -188905.848         721.160          43.000  
  22682129.511      978902.834       -3904.305          43.000  
  20238758.887       93047.701        -439.587          43.000  
  22642869.365     -497381.415        1927.087          42.000  
  21962400.358     -572716.371        2216.223          42.000  
  25262533.867      986790.450       -3912.725          43.000  
  24894596.218     -403579.065        1530.244          42.000  
 14 12 20  0  4 16.0000000  0 13G23G 2G 3G 1G20G32G 6G28G17G 9G10G11
                                G12
  22455212.830     -121381.684         411.281          43.000  
  24839655.324     -374451.792        1473.352          43.000  
  22172631.385      922637.375       -3671.491          43.000  
  23868489.474      846331.706       -3344.085          43.000  
  21210511.135      814814.478       -3257.396          42.000  
  25853178.663     1151913.481       -4536.673          42.000  
  21594679.179     -189626.916         719.887          42.000  
  22682872.593      982806.992       -3904.680          43.000  
  20238842.805       93487.557        -440.119          43.000  
  22642503.033     -499308.756        1927.188          42.000  
  21961979.127     -574932.355        2215.554          43.000  
  25263278.258      990703.471       -3913.665          43.000  
  24894305.776     -405109.173        1529.082          42.000  
 14 12 20  0  4 17.0000000  0 13G23G 2G 3G 1G20G32G 6G28G17G 9G10G11
                                G12
  22455134.757     -121793.119         411.626          42.000  
  24839375.562     -375925.420        1474.231          43.000  
  22173330.319      926308.572       -3670.707          42.000  
  23869125.290      849675.677       -3343.439          42.000  
  21211131.123      818072.289       -3257.750          42.000  
  25854042.327     1156449.617       -4535.011          42.000  
  21594542.195     -190347.576         720.613          42.000  
  22683615.746      986711.596       -3903.658          43.000  
  20238926.619       93928.128        -440.835          43.000  
  22642136.857     -501235.624        1926.861          42.000  
  21961558.071     -577147.746        2216.069          43.000  
  25264023.871      994616.768       -3913.052          43.000  
  24894014.340     -406638.636        1530.162          43.000  
 14 12 20  0  4 18.0000000  0 13G23G 2G 3G 1G20G32G 6G28G17G 9G10G11
                                G12
  22455056.947     -122204.260         410.354          43.000  
  24839095.085     -377399.252        1473.199          43.000  
  22174028.711      929979.849       -3672.342          42.000  
  23869762.258      853019.494       -3344.451          42.000  
  21211751.217      821330.266       -3258.888          42.000  
  25854905.781     1160985.502       -4536.518          42.000  
  21594404.966     -191068.273         719.570          42.000  
  22684358.357      990616.214       -3905.280          42.000  
  20239011.462       94369.036        -442.347          43.000  
  22641771.048     -503162.394        1926.011          42.000  
  21961136.823     -579362.973        2214.332          42.000  
  25264768.978      998529.937       -3914.119          42.000  
  24893722.887     -408167.853        1528.002          43.000  
 14 12 20  0  4 19.0000000  0 13G23G 2G 3G 1G20G32G 6G28G17G 9G10G11
                                G12
  22454978.229     -122614.686         409.501          43.000  
  24838814.276     -378872.871        1473.008          42.000  
  22174727.976      933651.619       -3672.546          42.000  
  23870398.877      856363.589       -3344.661          42.000  
  21212371.799      824588.833       -3259.962          42.000  
  25855768.660     1165521.595       -4536.555          42.000  
  21594268.226     -191788.575         720.312          42.000  
  22685101.527      994521.300       -3906.042          42.000  
  20239095.415       94810.691        -442.296          43.000  
  22641405.047     -505088.642        1925.946          42.000  
  21960715.592     -581577.557        2214.502          42.000  
  25265514.155     1002443.372       -3914.641          43.000  
  24893432.323     -409696.340        1528.384          42.000  
 14 12 20  0  4 20.0000000  0 13G23G 2G 3G 1G20G32G 6G28G17G 9G10G11
                                G12
  22454900.698     -123025.084         410.613          42.000  
  24838533.903     -380346.943        1474.977          42.000  
  22175427.294      937323.173       -3671.189          43.000  
  23871035.653      859707.292       -3343.112          42.000  
  21212991.718      827847.279       -3258.015          42.000  
  25856631.712     1170057.173       -4535.997          42.000  
  21594131.207     -192509.172         721.230          42.000  
  22685844.714      998426.166       -3904.125          42.000  
  20239179.734       95252.394        -441.831          43.000  
  22641037.912     -507015.080        1926.866          42.000  
  21960295.094     -583792.260        2214.913          42.000  
  25266259.209     1006356.433       -3913.609          42.000  
  24893141.533     -411224.867        1528.233          42.000  
 14 12 20  0  4 21.0000000  0 13G23G 2G 3G 1G20G32G 6G28G17G 9G10G11
                                G12
  22454822.974     -123434.954         409.879          43.000  
  24838253.670     -381821.011        1474.269          43.000  
  22176126.262      940995.017       -3671.609          42.000  
  23871672.062      863051.048       -3343.422          42.000  
  21213612.562      831106.101       -3258.822          42.000  
  25857495.463     1174592.732       -4535.348          42.000  
  21593993.856     -193229.596         720.419          42.000  
  22686588.600     1002331.265       -3904.693          42.000  
  20239264.089       95694.653        -442.322          43.000  
  22640671.824     -508941.232        1925.509          42.000  
  21959873.758     -586006.555        2213.647          42.000  
  25267004.194     1010269.556       -3913.956          42.000  
  24892851.178     -412752.900        1528.369          42.000  
 14 12 20  0  4 22.0000000  0 13G23G 2G 3G 1G20G32G 6G28G17G 9G10G11
                                G12
  22454745.705     -123844.208         409.341          42.000  
  24837973.559     -383294.956        1474.152          42.000  
  22176825.510      944667.231       -3672.572          42.000  
  23872308.489      866394.975       -3344.141          42.000  
  21214233.458      834365.379       -3260.001          42.000  
  25858358.760     1179128.379       -4535.746          43.000  
  21593857.099     -193949.724         720.201          42.000  
  22687332.276     1006236.715       -3905.820          42.000  
  20239349.054       96137.525        -443.267          43.000  
  22640306.364     -510866.968        1925.149          42.000  
  21959452.440     -588220.357        2213.815          42.000  
  25267749.248     1014182.882       -3914.182          42.000  
  24892559.934     -414280.374        1527.278          42.000  
 14 12 20  0  4 23.0000000  0 13G23G 2G 3G 1G20G32G 6G28G17G 9G10G11
                                G12
  22454668.121     -124252.452         408.256          42.000  
  24837694.164     -384768.387        1473.350          43.000  
  22177524.688      948340.215       -3673.165          43.000  
  23872944.951      869739.475       -3344.142          43.000  
  21214853.883      837625.535       -3260.349          43.000  
  25859222.058     1183664.502       -4536.008          43.000  
  21593720.394     -194669.182         718.841          42.000  
  22688076.178     1010142.919       -3906.467          43.000  
  20239434.281       96581.459        -443.794          43.000  
  22639940.189     -512791.897        1924.997          42.000  
  21959031.506     -590433.244        2212.572          42.000  
  25268494.442     1018096.787       -3912.974          43.000  
  24892269.720     -415806.876        1526.281          43.000  
 14 12 20  0  4 24.0000000  0 13G23G 2G 3G 1G20G32G 6G28G17G 9G10G11
                                G12
  22454590.694     -124660.296         407.273          42.000  
  24837413.407     -386241.941        1473.072          43.000  
  22178224.267      952013.382       -3673.531          43.000  
  23873582.041      873083.926       -3345.170          43.000  
  21215474.430      840885.938       -3261.621          43.000  
  25860085.407     1188200.489       -4535.942          42.000  
  21593583.881     -195388.557         719.135          42.000  
  22688819.505     1014049.233       -3906.816          42.000  
  20239518.757       97025.805        -445.507          43.000  
  22639574.171     -514716.630        1924.329          42.000  
  21958610.886     -592645.861        2211.663          42.000  
  25269239.410     1022010.642       -3914.888          43.000  
  24891979.680     -417332.998        1525.484          43.000  
 14 12 20  0  4 25.0000000  0 13G23G 2G 3G 1G20G32G 6G28G17G 9G10G11
                                G12
  22454512.971     -125067.456         407.461          42.000  
  24837132.912     -387715.279        1473.832          42.000  
  22178923.689      955686.997       -3673.473          42.000  
  23874218.171      876428.636       -3344.279          42.000  
  21216095.658      844146.897       -3259.877          42.000  
  25860948.355     1192736.644       -4535.422          42.000  
  21593447.403     -196107.569         720.210          42.000  
  22689563.757     1017956.002       -3907.265          42.000  
  20239603.303       97470.880        -445.022          43.000  
  22639209.007     -516640.894        1924.823          42.000  
  21958190.161     -594857.881        2212.059          42.000  
  25269984.394     1025924.779       -3913.239          43.000  
  24891689.535     -418858.454        1526.307          43.000  
 14 12 20  0  4 26.0000000  0 13G23G 2G 3G 1G20G32G 6G28G17G 9G10G11
                                G12
  22454435.684     -125474.151         405.532          42.000  
  24836852.802     -389188.685        1472.825          42.000  
  22179622.989      959360.817       -3674.710          42.000  
  23874854.790      879773.331       -3345.714          42.000  
  21216716.694      847408.144       -3262.431          42.000  
  25861811.618     1197272.687       -4537.164          42.000  
  21593311.204     -196826.486         717.972          42.000  
  22690306.805     1021862.942       -3908.339          42.000  
  20239687.797       97916.415        -446.789          42.000  
  22638843.251     -518564.939        1922.681          42.000  
  21957769.280     -597069.594        2211.096          42.000  
  25270729.117     1029838.891       -3914.830          42.000  
  24891399.809     -420383.540        1524.167          42.000  
 14 12 20  0  4 27.0000000  0 13G23G 2G 3G 1G20G32G 6G28G17G 9G10G11
                                G12
  22454359.008     -125880.157         404.733          42.000  
  24836573.685     -390661.862        1471.752          42.000  
  22180321.870      963035.135       -3675.205          43.000  
  23875491.810      883118.312       -3346.215          43.000  
  21217337.258      850669.986       -3263.317          42.000  
  25862674.356     1201808.934       -4536.856          42.000  
  21593174.586     -197544.999         717.583          42.000  
  22691050.865     1025770.350       -3907.828          42.000  
  20239772.920       98362.685        -447.279          43.000  
  22638477.582     -520488.456        1921.923          42.000  
  21957348.031     -599280.711        2209.825          43.000  
  25271474.817     1033753.319       -3915.486          42.000  
  24891109.856     -421907.919        1523.411          42.000  
 14 12 20  0  4 28.0000000  0 13G23G 2G 3G 1G20G32G 6G28G17G 9G10G11
                                G12
  22454282.384     -126285.192         404.996          43.000  
  24836293.539     -392134.612        1473.492          42.000  
  22181020.682      966710.156       -3674.449          42.000  
  23876129.127      886463.784       -3345.639          42.000  
  21217957.997      853932.596       -3262.551          42.000  
  25863538.578     1206345.589       -4535.928          42.000  
  21593038.631     -198262.895         718.606          42.000  
  22691794.471     1029678.397       -3907.714          42.000  
  20239858.740       98809.944        -447.087          43.000  
  22638110.970     -522411.237        1923.109          42.000  
  21956927.900     -601490.979        2210.268          42.000  
  25272219.767     1037668.254       -3913.807          42.000  
  24890820.095     -423431.399        1524.131          43.000  
 14 12 20  0  4 29.0000000  0 13G23G 2G 3G 1G20G32G 6G28G17G 9G10G11
                                G12
  22454205.690     -126689.992         404.327          43.000  
  24836013.498     -393607.600        1472.947          42.000  
  22181719.860      970385.159       -3675.164          43.000  
  23876766.112      889809.057       -3345.480          42.000  
  21218579.295      857195.323       -3262.700          42.000  
  25864402.207     1210881.925       -4536.833          42.000  
  21592902.206     -198980.903         717.830          42.000  
  22692538.304     1033586.423       -3908.467          42.000  
  20239944.316       99257.459        -447.338          43.000  
  22637745.632     -524333.991        1922.355          42.000  
  21956508.589     -603701.130        2209.865          42.000  
  25272965.049     1041582.998       -3914.512          42.000  
  24890530.666     -424954.683        1523.516          42.000  
 14 12 20  0  4 30.0000000  0 13G23G 2G 3G 1G20G32G 6G28G17G 9G10G11
                                G12
  22454128.316     -127094.252         403.152          43.000  
  24835733.824     -395080.544        1473.066          42.000  
  22182419.858      974060.497       -3676.122          42.000  
  23877403.307      893154.438       -3346.102          42.000  
  21219201.360      860458.443       -3264.184          42.000  
  25865266.028     1215418.305       -4536.596          42.000  
  21592766.216     -199698.673         717.205          42.000  
  22693282.172     1037494.777       -3908.722          42.000  
  20240029.926       99705.524        -448.717          43.000  
  22637380.347     -526256.418        1921.271          42.000  
  21956088.876     -605910.856        2209.079          42.000  
  25273710.644     1045497.840       -3916.022          42.000  
  24890241.184     -426477.450        1521.697          42.000  
 14 12 20  0  4 31.0000000  0 13G23G 2G 3G 1G20G32G 6G28G17G 9G10G11
                                G12
  22454052.163     -127497.950         404.121          42.000  
  24835453.626     -396553.469        1473.525          43.000  
  22183119.629      977736.141       -3675.131          43.000  
  23878040.571      896499.920       -3345.235          42.000  
  21219822.518      863721.958       -3263.198          42.000  
  25866129.569     1219954.676       -4535.718          42.000  
  21592630.279     -200416.247         717.611          42.000  
  22694026.650     1041403.361       -3907.869          42.000  
  20240115.066      100154.188        -448.681          43.000  
  22637014.643     -528178.511        1922.634          42.000  
  21955669.233     -608120.139        2209.260          42.000  
  25274455.978     1049412.811       -3914.308          42.000  
  24889952.331     -427999.708        1522.786          42.000  
 14 12 20  0  4 32.0000000  0 13G23G 2G 3G 1G20G32G 6G28G17G 9G10G11
                                G12
  22453975.295     -127901.098         402.964          42.000  
  24835173.846     -398026.295        1472.783          43.000  
  22183819.435      981412.122       -3675.899          43.000  
  23878676.649      899845.516       -3345.453          42.000  
  21220443.781      866985.904       -3264.124          42.000  
  25866993.442     1224491.086       -4536.254          42.000  
  21592493.888     -201133.556         717.333          42.000  
  22694770.728     1045312.261       -3908.974          42.000  
  20240200.712      100603.448        -449.396          43.000  
  22636649.113     -530100.225        1922.105          42.000  
  21955248.700     -610328.972        2208.675          42.000  
  25275200.753     1053327.911       -3914.353          42.000  
  24889663.268     -429521.419        1522.477          42.000  
 14 12 20  0  4 33.0000000  0 13G23G 2G 3G 1G20G32G 6G28G17G 9G10G11
                                G12
  22453898.915     -128303.522         402.620          42.000  
  24834893.404     -399498.934        1472.873          42.000  
  22184519.154      985088.558       -3676.602          42.000  
  23879313.914      903191.389       -3345.247          42.000  
  21221065.131      870250.405       -3264.158          42.000  
  25867856.792     1229027.666       -4536.695          42.000  
  21592357.078     -201850.508         717.157          42.000  
  22695514.875     1049221.595       -3909.629          42.000  
  20240286.706      101053.414        -450.113          43.000  
  22636283.566     -532021.465        1921.459          42.000  
  21954829.092     -612537.220        2208.207          42.000  
  25275945.738     1057243.297       -3914.579          42.000  
  24889374.205     -431042.486        1521.025          42.000  
 14 12 20  0  4 34.0000000  0 13G23G 2G 3G 1G20G32G 6G28G17G 9G10G11
                                G12
  22453822.379     -128705.528         402.060          42.000  
  24834613.450     -400971.644        1472.657          42.000  
  22185219.134      988765.204       -3676.599          42.000  
  23879951.283      906537.238       -3345.774          42.000  
  21221686.638      873515.186       -3265.142          42.000  
  25868720.281     1233564.131       -4536.331          42.000  
  21592220.984     -202567.354         717.293          42.000  
  22696259.406     1053131.092       -3910.038          42.000  
  20240373.678      101503.854        -450.251          43.000  
  22635918.141     -533942.480        1921.549          42.000  
  21954409.415     -614745.150        2207.239          42.000  
  25276690.740     1061158.663       -3914.952          42.000  
  24889085.212     -432563.156        1521.423          42.000  
 14 12 20  0  4 35.0000000  0 13G23G 2G 3G 1G20G32G 6G28G17G 9G10G11
                                G12
  22453746.174     -129106.672         400.780          42.000  
  24834333.531     -402443.983        1472.467          42.000  
  22185919.307      992442.469       -3678.188          42.000  
  23880588.181      909883.488       -3346.622          42.000  
  21222309.192      876780.692       -3265.823          42.000  
  25869583.526     1238100.930       -4537.371          42.000  
  21592085.274     -203283.676         715.818          42.000  
  22697003.361     1057041.203       -3909.558          42.000  
  20240459.673      101955.186        -451.710          42.000  
  22635552.751     -535862.845        1920.673          42.000  
  21953989.964     -616952.337        2206.593          42.000  
  25277436.492     1065074.440       -3916.759          42.000  
  24888796.114     -434083.004        1519.472          42.000  
 14 12 20  0  4 36.0000000  0 13G23G 2G 3G 1G20G32G 6G28G17G 9G10G11
                                G12
  22453669.916     -129507.237         400.281          42.000  
  24834053.315     -403916.254        1472.282          43.000  
  22186619.759      996120.070       -3677.952          42.000  
  23881224.974      913229.895       -3346.400          42.000  
  21222930.280      880046.618       -3266.241          42.000  
  25870448.271     1242637.788       -4536.884          42.000  
  21591949.912     -203999.739         716.117          42.000  
  22697747.944     1060951.595       -3911.299          42.000  
  20240546.069      102407.106        -452.151          43.000  
  22635187.465     -537782.863        1919.930          42.000  
  21953570.338     -619159.075        2205.897          42.000  
  25278181.809     1068990.381       -3915.865          42.000  
  24888508.238     -435602.310        1519.055          42.000  
 14 12 20  0  4 37.0000000  0 13G23G 2G 3G 1G20G32G 6G28G17G 9G10G11
                                G12
  22453594.357     -129907.199         399.162          42.000  
  24833773.170     -405388.417        1471.810          42.000  
  22187319.704      999798.034       -3678.408          42.000  
  23881862.605      916576.445       -3347.297          42.000  
  21223552.276      883312.991       -3266.967          42.000  
  25871311.726     1247174.687       -4537.120          42.000  
  21591814.272     -204715.552         715.696          42.000  
  22698491.882     1064862.334       -3911.239          42.000  
  20240632.098      102859.656        -452.677          42.000  
  22634822.407     -539702.466        1918.946          42.000  
  21953150.085     -621365.310        2205.833          42.000  
  25278927.404     1072906.470       -3916.966          42.000  
  24888218.809     -437121.065        1517.903          42.000  
 14 12 20  0  4 38.0000000  0 13G23G 2G 3G 1G20G32G 6G28G17G 9G10G11
                                G12
  22453519.111     -130306.265         399.221          42.000  
  24833493.059     -406860.201        1471.709          42.000  
  22188020.331     1003476.660       -3678.369          42.000  
  23882499.486      919923.434       -3346.841          43.000  
  21224173.974      886580.115       -3267.090          42.000  
  25872175.232     1251711.938       -4537.712          42.000  
  21591677.846     -205430.787         715.727          42.000  
  22699237.128     1068773.691       -3911.205          42.000  
  20240718.809      103313.117        -453.604          43.000  
  22634457.226     -541621.391        1918.759          42.000  
  21952730.407     -623570.778        2205.204          42.000  
  25279673.785     1076823.050       -3916.314          42.000  
  24887930.112     -438638.935        1517.848          42.000  
 14 12 20  0  4 39.0000000  0 13G23G 2G 3G 1G20G32G 6G28G17G 9G10G11
                                G12
  22453443.814     -130705.399         398.645          42.000  
  24833213.053     -408332.529        1471.514          42.000  
  22188720.102     1007154.989       -3679.474          42.000  
  23883136.122      923269.955       -3346.872          42.000  
  21224795.289      889847.037       -3268.238          42.000  
  25873039.280     1256248.606       -4537.799          42.000  
  21591541.211     -206146.423         715.386          43.000  
  22699981.502     1072684.722       -3912.712          42.000  
  20240805.484      103766.550        -454.196          43.000  
  22634092.028     -543540.587        1918.345          42.000  
  21952310.328     -625776.409        2204.850          42.000  
  25280418.769     1080739.116       -3916.621          42.000  
  24887641.207     -440156.925        1517.306          42.000  
 14 12 20  0  4 40.0000000  0 13G23G 2G 3G 1G20G32G 6G28G17G 9G10G11
                                G12
  22453369.284     -131103.633         398.072          42.000  
  24832933.326     -409804.484        1472.053          42.000  
  22189421.007     1010833.959       -3679.194          42.000  
  23883773.910      926616.886       -3346.567          42.000  
  21225417.111      893114.704       -3267.942          42.000  
  25873902.228     1260785.646       -4536.654          42.000  
  21591406.041     -206861.498         714.587          43.000  
  22700725.771     1076596.376       -3911.545          43.000  
  20240892.246      104220.893        -454.530          43.000  
  22633727.685     -545459.105        1918.478          42.000  
  21951891.069     -627981.279        2204.649          42.000  
  25281164.836     1084655.639       -3916.490          42.000  
  24887353.156     -441674.054        1516.841          42.000  
 14 12 20  0  4 41.0000000  0 13G23G 2G 3G 1G20G32G 6G28G17G 9G10G11
                                G12
  22453293.480     -131501.513         397.554          42.000  
  24832653.651     -411276.574        1472.485          42.000  
  22190121.407     1014513.055       -3679.294          42.000  
  23884411.018      929963.742       -3346.732          42.000  
  21226039.961      896382.571       -3268.462          42.000  
  25874765.542     1265322.478       -4536.542          42.000  
  21591271.029     -207576.550         715.218          42.000  
  22701469.936     1080508.120       -3912.017          42.000  
  20240979.218      104675.630        -454.357          43.000  
  22633362.940     -547377.483        1917.688          42.000  
  21951471.479     -630185.912        2204.063          42.000  
  25281910.344     1088572.090       -3916.043          42.000  
  24887065.088     -443190.861        1516.840          42.000  
 14 12 20  0  4 42.0000000  0 13G23G 2G 3G 1G20G32G 6G28G17G 9G10G11
                                G12
  22453218.305     -131898.910         397.694          42.000  
  24832374.133     -412748.705        1472.372          42.000  
  22190822.487     1018192.390       -3679.144          42.000  
  23885047.916      933310.616       -3347.300          42.000  
  21226661.992      899650.766       -3268.614          42.000  
  25875628.630     1269859.242       -4536.959          42.000  
  21591134.987     -208291.460         714.535          42.000  
  22702214.921     1084420.055       -3912.247          42.000  
  20241066.225      105130.834        -455.573          43.000  
  22632998.649     -549295.595        1917.953          42.000  
  21951052.429     -632390.187        2203.684          42.000  
  25282655.399     1092488.582       -3916.782          42.000  
  24886776.775     -444707.249        1515.990          42.000  
 14 12 20  0  4 43.0000000  0 13G23G 2G 3G 1G20G32G 6G28G17G 9G10G11
                                G12
  22453143.129     -132295.603         396.597          42.000  
  24832094.773     -414220.598        1471.563          42.000  
  22191522.973     1021872.206       -3679.996          42.000  
  23885684.692      936657.776       -3347.468          42.000  
  21227284.109      902919.544       -3268.662          42.000  
  25876492.538     1274396.219       -4536.641          42.000  
  21590999.504     -209005.954         714.614          42.000  
  22702959.591     1088332.472       -3912.874          42.000  
  20241153.197      105586.815        -456.694          43.000  
  22632634.690     -551213.192        1917.170          42.000  
  21950633.624     -634593.830        2203.398          42.000  
  25283401.186     1096405.353       -3916.979          42.000  
  24886489.108     -446222.935        1515.982          42.000  
 14 12 20  0  4 44.0000000  0 13G23G 2G 3G 1G20G32G 6G28G17G 9G10G11
                                G12
  22453067.988     -132691.538         395.440          42.000  
  24831814.732     -415692.258        1472.036          42.000  
  22192223.861     1025552.518       -3680.848          42.000  
  23886322.078      940005.223       -3347.528          42.000  
  21227906.297      906188.889       -3268.965          42.000  
  25877356.411     1278933.384       -4537.512          42.000  
  21590863.567     -209720.065         714.406          42.000  
  22703704.593     1092245.330       -3913.258          43.000  
  20241240.570      106043.558        -456.501          42.000  
  22632270.260     -553130.260        1916.989          42.000  
  21950214.086     -636796.868        2203.112          42.000  
  25284146.799     1100322.439       -3916.559          42.000  
  24886200.918     -447737.932        1514.782          42.000  
 14 12 20  0  4 45.0000000  0 13G23G 2G 3G 1G20G32G 6G28G17G 9G10G11
                                G12
  22452993.057     -133087.113         395.917          42.000  
  24831535.476     -417164.056        1472.060          42.000  
  22192924.261     1029232.971       -3680.518          42.000  
  23886959.098      943352.598       -3347.406          42.000  
  21228529.305      909458.472       -3269.848          42.000  
  25878220.127     1283470.377       -4536.501          42.000  
  21590727.856     -210434.146         714.003          42.000  
  22704449.281     1096158.286       -3913.073          43.000  
  20241327.245      106500.679        -457.117          42.000  
  22631905.149     -555047.169        1916.711          42.000  
  21949795.106     -638999.665        2202.567          42.000  
  25284892.918     1104239.450       -3916.768          42.000  
  24885912.728     -449252.599        1514.594          42.000  
 14 12 20  0  4 46.0000000  0 13G23G 2G 3G 1G20G32G 6G28G17G 9G10G11
                                G12
  22452918.423     -133482.011         394.397          42.000  
  24831255.976     -418635.657        1471.531          42.000  
  22193624.503     1032913.867       -3680.765          42.000  
  23887596.695      946700.206       -3347.921          42.000  
  21229151.597      912728.595       -3269.861          42.000  
  25879083.686     1288007.505       -4537.336          42.000  
  21590592.408     -211147.851         713.810          42.000  
  22705194.685     1100071.669       -3913.906          42.000  
  20241415.055      106958.513        -457.894          43.000  
  22631540.492     -556963.591        1917.069          43.000  
  21949375.463     -641201.875        2202.157          42.000  
  25285638.496     1108156.710       -3917.324          42.000  
  24885625.148     -450766.595        1514.038          42.000  
 14 12 20  0  4 47.0000000  0 13G23G 2G 3G 1G20G32G 6G28G17G 9G10G11
                                G12
  22452843.212     -133876.222         393.697          42.000  
  24830976.388     -420107.107        1471.301          42.000  
  22194325.862     1036595.178       -3681.674          42.000  
  23888233.505      950048.048       -3348.069          42.000  
  21229774.290      915999.226       -3271.082          42.000  
  25879947.524     1292544.781       -4537.749          42.000  
  21590456.872     -211861.234         712.838          42.000  
  22705939.722     1103985.444       -3914.566          42.000  
  20241502.760      107417.039        -458.901          43.000  
  22631176.341     -558879.581        1915.524          42.000  
  21948957.251     -643403.539        2201.201          43.000  
  25286384.091     1112074.199       -3917.500          42.000  
  24885337.150     -452279.983        1512.846          42.000  
 14 12 20  0  4 48.0000000  0 13G23G 2G 3G 1G20G32G 6G28G17G 9G10G11
                                G12
  22452768.630     -134270.012         393.376          42.000  
  24830696.871     -421578.621        1470.878          42.000  
  22195026.017     1040276.702       -3682.114          42.000  
  23888871.293      953395.867       -3348.222          42.000  
  21230397.054      919270.140       -3271.088          42.000  
  25880810.664     1297081.959       -4537.266          42.000  
  21590321.720     -212574.504         712.883          42.000  
  22706684.846     1107899.395       -3914.657          42.000  
  20241590.185      107876.027        -459.800          43.000  
  22630811.858     -560795.334        1915.230          42.000  
  21948539.144     -645604.882        2200.367          42.000  
  25287129.739     1115991.706       -3917.571          42.000  
  24885049.675     -453792.960        1512.248          42.000  
 14 12 20  0  4 49.0000000  0 13G23G 2G 3G 1G20G32G 6G28G17G 9G10G11
                                G12
  22452694.257     -134663.338         392.398          42.000  
  24830417.248     -423050.185        1471.796          42.000  
  22195727.027     1043958.447       -3682.314          42.000  
  23889508.645      956743.718       -3348.099          42.000  
  21231020.026      922541.378       -3271.335          42.000  
  25881674.502     1301619.039       -4537.918          42.000  
  21590186.690     -213287.665         712.615          42.000  
  22707428.941     1111813.529       -3914.636          42.000  
  20241677.803      108335.506        -460.697          43.000  
  22630447.166     -562710.837        1915.061          42.000  
  21948119.728     -647805.884        2200.821          42.000  
  25287875.457     1119909.235       -3916.864          42.000  
  24884762.305     -455305.514        1512.326          42.000  
 14 12 20  0  4 50.0000000  0 13G23G 2G 3G 1G20G32G 6G28G17G 9G10G11
                                G12
  22452619.588     -135055.812         392.501          42.000  
  24830136.666     -424521.394        1471.720          42.000  
  22196427.933     1047640.797       -3682.156          42.000  
  23890146.276      960091.947       -3347.890          42.000  
  21231643.209      925813.312       -3271.731          42.000  
  25882538.201     1306156.445       -4537.291          42.000  
  21590051.259     -214000.297         712.031          42.000  
  22708173.751     1115728.247       -3914.717          42.000  
  20241765.281      108795.841        -460.437          43.000  
  22630083.852     -564625.707        1914.951          42.000  
  21947701.429     -650006.160        2199.784          42.000  
  25288621.244     1123827.158       -3917.744          42.000  
  24884474.812     -456817.276        1512.042          42.000  
 14 12 20  0  4 51.0000000  0 13G23G 2G 3G 1G20G32G 6G28G17G 9G10G11
                                G12
  22452545.285     -135447.603         391.025          42.000  
  24829856.870     -425992.412        1470.903          42.000  
  22197128.681     1051323.591       -3683.406          42.000  
  23890783.279      963440.428       -3348.952          42.000  
  21232266.530      929085.770       -3272.790          42.000  
  25883401.568     1310693.989       -4538.519          42.000  
  21589916.316     -214712.566         711.888          42.000  
  22708919.469     1119643.362       -3915.367          43.000  
  20241852.881      109256.910        -461.667          43.000  
  22629719.684     -566540.092        1913.933          42.000  
  21947283.007     -652205.855        2199.307          42.000  
  25289367.067     1127745.343       -3919.107          42.000  
  24884187.425     -458328.385        1510.189          42.000  
 14 12 20  0  4 52.0000000  0 13G23G 2G 3G 1G20G32G 6G28G17G 9G10G11
                                G12
  22452471.400     -135839.366         391.344          42.000  
  24829577.352     -427463.923        1470.648          43.000  
  22197829.482     1055006.178       -3682.389          43.000  
  23891420.962      966788.499       -3348.339          42.000  
  21232889.311      932358.124       -3272.863          42.000  
  25884265.144     1315231.040       -4537.200          43.000  
  21589780.571     -215425.145         711.914          42.000  
  22709664.384     1123558.247       -3916.157          43.000  
  20241941.022      109718.009        -461.923          43.000  
  22629355.498     -568454.676        1913.635          42.000  
  21946864.970     -654405.654        2199.253          42.000  
  25290113.517     1131663.122       -3918.016          43.000  
  24883900.351     -459839.486        1510.861          42.000  
 14 12 20  0  4 53.0000000  0 13G23G 2G 3G 1G20G32G 6G28G17G 9G10G11
                                G12
  22452397.045     -136230.537         391.574          43.000  
  24829297.922     -428935.320        1472.171          42.000  
  22198530.283     1058689.113       -3682.487          43.000  
  23892058.384      970136.699       -3348.054          43.000  
  21233512.546      935630.903       -3271.996          43.000  
  25885128.476     1319768.124       -4536.620          42.000  
  21589645.192     -216137.478         712.913          42.000  
  22710409.752     1127473.435       -3914.779          43.000  
  20242029.529      110179.737        -461.648          43.000  
  22628991.992     -570368.855        1914.574          42.000  
  21946446.828     -656604.968        2199.448          43.000  
  25290859.444     1135581.057       -3917.143          42.000  
  24883613.382     -461350.048        1510.941          43.000  
 14 12 20  0  4 54.0000000  0 13G23G 2G 3G 1G20G32G 6G28G17G 9G10G11
                                G12
  22452322.934     -136620.853         389.929          42.000  
  24829017.881     -430406.386        1471.022          42.000  
  22199231.223     1062372.653       -3683.646          43.000  
  23892695.631      973485.318       -3349.012          43.000  
  21234136.025      938904.387       -3274.048          43.000  
  25885992.262     1324305.527       -4537.641          42.000  
  21589509.866     -216849.283         711.675          43.000  
  22711154.981     1131389.207       -3915.346          43.000  
  20242117.915      110642.339        -462.446          43.000  
  22628628.609     -572282.417        1913.259          42.000  
  21946028.599     -658803.553        2197.839          43.000  
  25291605.441     1139499.415       -3918.504          42.000  
  24883325.942     -462859.792        1509.824          42.000  
 14 12 20  0  4 55.0000000  0 13G23G 2G 3G 1G20G32G 6G28G17G 9G10G11
                                G12
  22452248.962     -137010.384         389.539          42.000  
  24828738.555     -431877.166        1470.121          43.000  
  22199933.158     1066056.759       -3683.858          43.000  
  23893333.942      976834.286       -3348.974          43.000  
  21234759.346      942178.519       -3273.601          42.000  
  25886855.943     1328843.188       -4537.194          42.000  
  21589374.278     -217560.621         711.704          42.000  
  22711901.257     1135305.524       -3916.189          43.000  
  20242207.155      111105.743        -463.528          43.000  
  22628264.719     -574195.377        1913.436          42.000  
  21945611.120     -661001.451        2197.428          42.000  
  25292351.071     1143418.113       -3918.345          43.000  
  24883038.450     -464368.781        1509.219          43.000  
 14 12 20  0  4 56.0000000  0 13G23G 2G 3G 1G20G32G 6G28G17G 9G10G11
                                G12
  22452175.532     -137399.326         389.110          43.000  
  24828459.212     -433347.851        1470.560          43.000  
  22200634.692     1069741.198       -3683.732          42.000  
  23893971.329      980183.378       -3348.358          43.000  
  21235382.459      945453.076       -3273.822          42.000  
  25887720.008     1333380.873       -4537.267          42.000  
  21589239.562     -218271.739         710.809          43.000  
  22712647.237     1139222.142       -3916.719          43.000  
  20242295.104      111569.766        -464.328          43.000  
  22627901.249     -576107.976        1913.045          42.000  
  21945193.658     -663198.898        2197.471          42.000  
  25293096.824     1147336.958       -3918.494          43.000  
  24882751.673     -465877.234        1508.116          43.000  
 14 12 20  0  4 57.0000000  0 13G23G 2G 3G 1G20G32G 6G28G17G 9G10G11
                                G12
  22452101.962     -137788.082         388.809          43.000  
  24828179.590     -434818.853        1471.083          42.000  
  22201335.719     1073425.573       -3684.823          42.000  
  23894608.820      983532.207       -3348.410          43.000  
  21236006.112      948727.670       -3274.116          43.000  
  25888583.113     1337918.242       -4536.660          43.000  
  21589103.782     -218982.976         711.133          43.000  
  22713392.692     1143138.649       -3916.859          43.000  
  20242384.048      112033.989        -465.070          43.000  
  22627536.818     -578020.607        1912.701          42.000  
  21944775.743     -665396.245        2197.664          43.000  
  25293842.803     1151255.572       -3918.476          43.000  
  24882464.826     -467385.530        1508.299          42.000  
 14 12 20  0  4 58.0000000  0 13G23G 2G 3G 1G20G32G 6G28G17G 9G10G11
                                G12
  22452028.409     -138176.159         387.485          42.000  
  24827899.775     -436289.684        1471.043          43.000  
  22202037.567     1077110.408       -3685.469          42.000  
  23895246.085      986881.279       -3349.781          43.000  
  21236629.347      952002.789       -3275.415          43.000  
  25889447.126     1342455.732       -4537.430          43.000  
  21588969.590     -219693.853         710.156          43.000  
  22714138.428     1147055.597       -3917.298          43.000  
  20242472.015      112498.932        -465.854          43.000  
  22627172.685     -579932.754        1911.838          42.000  
  21944358.019     -667593.053        2196.339          43.000  
  25294588.817     1155174.417       -3919.334          43.000  
  24882178.067     -468893.182        1506.832          43.000  
 14 12 20  0  4 59.0000000  0 13G23G 2G 3G 1G20G32G 6G28G17G 9G10G11
                                G12
  22451954.473     -138563.175         386.948          43.000  
  24827620.816     -437759.968        1470.455          42.000  
  22202739.938     1080796.060       -3685.507          42.000  
  23895883.873      990230.962       -3349.596          43.000  
  21237252.668      955278.828       -3276.534          43.000  
  25890310.912     1346993.744       -4537.667          43.000  
  21588833.461     -220404.019         710.317          43.000  
  22714884.512     1150973.305       -3918.132          43.000  
  20242560.766      112964.962        -466.292          43.000  
  22626809.755     -581844.042        1911.205          43.000  
  21943941.029     -669788.898        2195.782          42.000  
  25295334.971     1159093.894       -3919.655          43.000  
  24881892.407     -470399.812        1506.583          43.000  
 14 12 20  0  5  0.0000000  0 10G23G 3G20G32G 6G28G 9G10G11G12
  22451881.950     -138948.2133        383.975          24.000  
  22203441.716     1084482.4163      -3689.146          25.000  
  21237876.636      958553.8433      -3272.068          16.000  
  25891175.082     1351532.5493      -4539.050          23.000  
  21588698.012     -221114.7013        714.293          18.000  
  22715630.648     1154888.3903      -3906.461          24.000  
  22626446.895     -583750.3053       1892.192          23.000  
  21943523.079     -671982.2253       2187.111          24.000  
  25296081.928     1163014.7853      -3923.157          23.000  
  24881605.857     -471906.2253       1509.318          14.000  
 14 12 20  0  5  1.0000000  0 10G23G 3G20G32G 6G28G 9G10G11G12
  22451809.287     -139332.1793        383.975          21.000  
  22204144.088     1088171.5743      -3689.146          21.000  
  21238499.347      961825.9253      -3272.068          13.000  
  25892039.879     1356071.6123      -4539.050          19.000  
  21588562.214     -221828.9823        714.293          14.000  
  22716373.905     1158794.8613      -3906.461          20.000  
  22626087.159     -585642.4813       1892.192          19.000  
  21943108.148     -674169.3233       2187.111          20.000  
  25296829.198     1166937.9553      -3923.157          19.000  
  24881319.394     -473415.5283       1509.318           9.000  
 14 12 20  0  5  2.0000000  0 10G23G 3G20G32G 6G28G 9G10G11G12
  22451736.380     -139716.1433        383.975          18.000  
  22204847.174     1091860.7313      -3689.146          18.000  
  21239122.546      965098.0033      -3272.068          12.000  
  25892905.166     1360610.6713      -4539.050          16.000  
  21588426.905     -222543.2633        714.293          12.000  
  22717118.820     1162701.3323      -3906.461          17.000  
  22625730.320     -587534.6643       1892.192          17.000  
  21942692.553     -676356.4203       2187.111          17.000  
  25297575.736     1170861.1153      -3923.157          17.000  
  24881029.790     -474941.0903       1531.366           9.000  
