     2.10           OBSERVATION DATA    M (MIXED)           RINEX VERSION / TYPE
RTKCONV 2.4.2                           20150702 014156 UTC PGM / RUN BY / DATE 
log: D:\Work\SoftGPSSim\trajgen\rtk\rover.ubx               COMMENT             
format: u-blox                                              COMMENT             
                                                            MARKER NAME         
                                                            MARKER NUMBER       
                                                            OBSERVER / AGENCY   
                                                            REC # / TYPE / VERS 
                                                            ANT # / TYPE        
 -3813474.2122  3554275.0080  3662784.2095                  APPROX POSITION XYZ 
        0.0000        0.0000        0.0000                  ANTENNA: DELTA H/E/N
     1     1                                                WAVELENGTH FACT L1/2
     4    C1    L1    D1    S1                              # / TYPES OF OBSERV 
  2014    12    20     0     0   43.0000000     GPS         TIME OF FIRST OBS   
  2014    12    20     0     5    0.0000000     GPS         TIME OF LAST OBS    
                                                            END OF HEADER       
 14 12 20  0  0 43.0000000  0 13G 1G 2G 3G32G20G23G 6G17G 9G10G11G12
                                G28
  23734967.562      140559.925       -3326.408          44.000  
  24901352.209      -61500.408        1479.826          44.000  
  22026818.604      152849.319       -3606.667          44.000  
  25670990.991      191428.872       -4535.339          44.000  
  21081849.771      132132.072       -3174.083          44.000  
  22475824.328      -21422.918         522.536          44.000  
  21626557.027      -31027.220         763.195          44.000  
  20225111.560       14005.093        -323.885          44.000  
  22723632.532      -80810.058        1991.380          44.000  
  22055341.753      -93730.465        2302.241          44.000  
  25106728.986      160452.509       -3892.514          44.000  
  24960194.971      -67511.248        1632.260          44.000  
  22527561.798      158387.084       -3845.498          44.000  
 14 12 20  0  0 44.0000000  0 13G 1G 2G 3G32G20G23G 6G17G 9G10G11G12
                                G28
  23735600.673      143885.671       -3325.859          44.000  
  24901069.951      -62980.449        1480.370          44.000  
  22027504.974      156455.699       -3606.551          44.000  
  25671854.183      195964.406       -4535.321          44.000  
  21082454.247      135306.012       -3174.164          44.000  
  22475724.705      -21945.444         523.038          44.000  
  21626411.317      -31790.253         763.383          44.000  
  20225173.229       14328.964        -323.747          44.000  
  22723253.461      -82801.888        1992.200          44.000  
  22054903.683      -96032.325        2302.202          44.000  
  25107469.539      164344.950       -3891.908          44.000  
  24959884.287      -69143.317        1632.466          44.000  
  22528294.010      162232.869       -3845.665          44.000  
 14 12 20  0  0 45.0000000  0 13G 1G 2G 3G32G20G23G 6G17G 9G10G11G12
                                G28
  23736233.662      147210.849       -3324.896          44.000  
  24900788.881      -64461.130        1480.680          44.000  
  22028191.151      160061.727       -3605.593          44.000  
  25672716.905      200499.268       -4534.144          44.000  
  21083058.042      138479.690       -3173.780          44.000  
  22475625.134      -22468.122         522.823          44.000  
  21626266.027      -32553.760         764.334          44.000  
  20225235.125       14652.695        -323.802          44.000  
  22722874.948      -84794.102        1992.375          44.000  
  22054466.223      -98334.472        2302.823          44.000  
  25108210.301      168236.797       -3891.541          44.000  
  24959574.127      -70775.595        1632.403          44.000  
  22529026.343      166078.277       -3845.167          44.000  
 14 12 20  0  0 46.0000000  0 13G 1G 2G 3G32G20G23G 6G17G 9G10G11G12
                                G28
  23736867.036      150536.451       -3325.385          44.000  
  24900508.142      -65941.423        1480.946          44.000  
  22028877.189      163668.435       -3606.555          44.000  
  25673580.341      205034.511       -4534.326          44.000  
  21083661.907      141654.125       -3174.135          44.000  
  22475525.877      -22989.925         522.352          44.000  
  21626121.277      -33316.719         763.098          44.000  
  20225296.899       14977.351        -324.347          44.000  
  22722496.401      -86785.658        1991.682          44.000  
  22054028.223     -100635.855        2301.674          44.000  
  25108951.376      172129.114       -3891.808          44.000  
  24959264.264      -72407.022        1631.475          44.000  
  22529758.083      169924.334       -3845.375          44.000  
 14 12 20  0  0 47.0000000  0 13G 1G 2G 3G32G20G23G 6G17G 9G10G11G12
                                G28
  23737499.379      153861.753       -3325.835          44.000  
  24900226.530      -67422.067        1480.181          44.000  
  22029564.047      167275.062       -3606.677          44.000  
  25674443.464      209569.365       -4535.321          44.000  
  21084266.557      144828.579       -3174.968          44.000  
  22475426.743      -23511.612         521.162          44.000  
  21625976.790      -34079.844         762.333          44.000  
  20225359.528       15302.140        -325.852          44.000  
  22722117.836      -88777.309        1991.617          44.000  
  22053590.641     -102937.221        2300.739          44.000  
  25109692.068      176021.139       -3892.591          44.000  
  24958954.191      -74038.374        1630.905          44.000  
  22530489.683      173770.278       -3846.957          44.000  
 14 12 20  0  0 48.0000000  0 13G 1G 2G 3G32G20G23G 6G17G 9G10G11G12
                                G28
  23738132.368      157187.261       -3325.916          44.000  
  24899945.215      -68902.562        1480.568          44.000  
  22030251.271      170882.106       -3607.085          44.000  
  25675307.320      214104.342       -4534.860          44.000  
  21084871.399      148003.544       -3175.235          44.000  
  22475327.939      -24032.662         520.887          44.000  
  21625831.534      -34842.673         762.766          44.000  
  20225422.174       15627.596        -325.407          44.000  
  22721738.974      -90768.562        1991.116          44.000  
  22053153.146     -105238.087        2300.560          44.000  
  25110433.476      179913.387       -3892.222          44.000  
  24958644.240      -75669.151        1630.672          44.000  
  22531221.790      177616.636       -3846.677          44.000  
 14 12 20  0  0 49.0000000  0 13G 1G 2G 3G32G20G23G 6G17G 9G10G11G12
                                G28
  23738766.370      160512.653       -3325.484          44.000  
  24899663.883      -70383.256        1480.618          44.000  
  22030937.745      174489.269       -3607.587          44.000  
  25676170.407      218639.129       -4535.357          44.000  
  21085476.101      151178.708       -3175.791          44.000  
  22475228.805      -24553.419         520.131          44.000  
  21625686.976      -35605.520         762.364          44.000  
  20225484.000       15953.376        -326.313          44.000  
  22721360.409      -92759.735        1990.831          44.000  
  22052715.355     -107538.752        2300.273          44.000  
  25111173.923      183805.520       -3892.172          44.000  
  24958334.359      -77299.645        1630.071          44.000  
  22531954.036      181463.069       -3846.576          44.000  
 14 12 20  0  0 50.0000000  0 13G 1G 2G 3G32G20G23G 6G17G 9G10G11G12
                                G28
  23739398.521      163837.932       -3325.447          44.000  
  24899381.922      -71864.117        1480.680          44.000  
  22031624.638      178096.539       -3607.214          44.000  
  25677033.443      223173.717       -4534.594          44.000  
  21086079.338      154354.079       -3175.905          44.000  
  22475130.229      -25073.841         520.239          44.000  
  21625542.035      -36368.356         762.913          44.000  
  20225546.332       16279.492        -326.289          44.000  
  22720981.443      -94750.806        1990.540          44.000  
  22052278.297     -109839.227        2300.119          44.000  
  25111916.116      187697.542       -3891.945          44.000  
  24958024.530      -78929.880        1630.108          44.000  
  22532685.549      185309.581       -3846.752          44.000  
 14 12 20  0  0 51.0000000  0 13G 1G 2G 3G32G20G23G 6G17G 9G10G11G12
                                G28
  23740032.034      167163.458       -3326.336          44.000  
  24899100.537      -73344.740        1480.165          44.000  
  22032311.549      181704.311       -3608.421          44.000  
  25677896.757      227708.514       -4534.903          44.000  
  21086683.708      157530.030       -3176.188          44.000  
  22475031.146      -25593.583         519.331          44.000  
  21625397.460      -37130.812         762.667          44.000  
  20225609.206       16606.357        -327.256          44.000  
  22720602.110      -96741.395        1990.754          44.000  
  22051841.326     -112139.103        2299.302          44.000  
  25112656.930      191589.857       -3892.979          44.000  
  24957714.213      -80559.447        1629.309          44.000  
  22533418.144      189156.580       -3847.150          44.000  
 14 12 20  0  0 52.0000000  0 13G 1G 2G 3G32G20G23G 6G17G 9G10G11G12
                                G28
  23740664.971      170488.908       -3325.336          44.000  
  24898818.769      -74825.533        1481.304          44.000  
  22032998.285      185312.212       -3607.527          44.000  
  25678759.566      232243.125       -4533.943          44.000  
  21087288.201      160706.202       -3175.745          44.000  
  22474932.936      -26112.971         520.024          44.000  
  21625252.326      -37893.248         763.179          44.000  
  20225670.892       16933.574        -327.014          44.000  
  22720224.016      -98731.859        1991.128          44.000  
  22051403.117     -114438.756        2299.912          44.000  
  25113397.622      195482.098       -3891.629          44.000  
  24957405.344      -82188.719        1629.833          44.000  
  22534150.268      193003.673       -3846.572          44.000  
 14 12 20  0  0 53.0000000  0 13G 1G 2G 3G32G20G23G 6G17G 9G10G11G12
                                G28
  23741298.431      173814.491       -3325.327          44.000  
  24898536.599      -76306.243        1480.949          44.000  
  22033685.492      188920.466       -3608.304          44.000  
  25679622.811      236777.793       -4534.374          44.000  
  21087892.694      163882.819       -3177.365          44.000  
  22474834.238      -26631.827         518.335          44.000  
  21625108.257      -38655.451         762.046          44.000  
  20225733.242       17261.366        -328.187          44.000  
  22719846.358     -100722.002        1990.088          44.000  
  22050966.023     -116737.990        2299.061          44.000  
  25114138.715      199374.470       -3892.320          44.000  
  24957095.167      -83817.485        1628.658          44.000  
  22534882.200      196851.107       -3847.801          44.000  
 14 12 20  0  0 54.0000000  0 13G 1G 2G 3G32G20G23G 6G17G 9G10G11G12
                                G28
  23741931.700      177139.698       -3325.832          44.000  
  24898255.528      -77787.378        1480.233          44.000  
  22034372.018      192528.585       -3608.938          44.000  
  25680485.253      241312.025       -4534.816          44.000  
  21088497.222      167059.392       -3177.234          44.000  
  22474735.522      -27150.598         517.982          44.000  
  21624964.014      -39417.905         762.071          44.000  
  20225795.539       17589.270        -328.435          44.000  
  22719468.526     -102712.303        1989.775          44.000  
  22050529.105     -119037.263        2298.761          44.000  
  25114879.198      203266.491       -3892.599          44.000  
  24956785.164      -85446.214        1628.101          44.000  
  22535615.039      200698.374       -3847.809          44.000  
 14 12 20  0  0 55.0000000  0 13G 1G 2G 3G32G20G23G 6G17G 9G10G11G12
                                G28
  23742565.090      180465.157       -3325.042          44.000  
  24897973.724      -79268.300        1481.538          44.000  
  22035058.771      196137.183       -3608.178          44.000  
  25681348.236      245846.433       -4534.012          44.000  
  21089102.762      170236.531       -3176.966          44.000  
  22474637.068      -27668.689         518.249          44.000  
  21624818.915      -40179.983         762.510          44.000  
  20225858.779       17917.865        -328.850          44.000  
  22719089.909     -104702.146        1990.360          44.000  
  22050091.977     -121335.978        2299.316          44.000  
  25115619.768      207158.783       -3891.796          44.000  
  24956475.422      -87074.315        1628.225          44.000  
  22536347.529      204546.092       -3847.383          44.000  
 14 12 20  0  0 56.0000000  0 13G 1G 2G 3G32G20G23G 6G17G 9G10G11G12
                                G28
  23743198.254      183790.522       -3325.527          44.000  
  24897692.148      -80749.404        1480.586          44.000  
  22035745.193      199745.925       -3608.646          44.000  
  25682211.917      250380.662       -4534.342          44.000  
  21089707.604      173413.894       -3177.672          44.000  
  22474538.753      -28186.463         518.057          44.000  
  21624674.201      -40942.054         762.325          44.000  
  20225921.495       18246.829        -329.406          44.000  
  22718711.588     -106691.869        1989.237          44.000  
  22049655.006     -123634.468        2298.179          44.000  
  25116360.652      211051.001       -3891.636          44.000  
  24956166.606      -88702.115        1627.599          44.000  
  22537079.618      208393.916       -3847.821          44.000  
 14 12 20  0  0 57.0000000  0 13G 1G 2G 3G32G20G23G 6G17G 9G10G11G12
                                G28
  23743831.662      187115.933       -3325.104          44.000  
  24897411.112      -82230.507        1481.565          44.000  
  22036432.261      203354.915       -3608.661          44.000  
  25683074.743      254914.852       -4534.180          44.000  
  21090312.987      176591.611       -3177.494          44.000  
  22474441.608      -28703.765         516.926          44.000  
  21624529.434      -41703.977         762.065          44.000  
  20225984.193       18576.287        -329.308          44.000  
  22718333.512     -108681.351        1989.172          44.000  
  22049217.704     -125932.599        2297.969          44.000  
  25117102.234      214943.256       -3892.110          44.000  
  24955856.864      -90329.505        1627.295          44.000  
  22537812.301      212241.975       -3848.402          44.000  
 14 12 20  0  0 58.0000000  0 13G 1G 2G 3G32G20G23G 6G17G 9G10G11G12
                                G28
  23744465.000      190441.245       -3325.113          44.000  
  24897129.762      -83711.737        1481.186          44.000  
  22037118.839      206964.066       -3609.137          44.000  
  25683938.319      259448.919       -4533.333          44.000  
  21090918.143      179769.564       -3178.219          44.000  
  22474342.997      -29220.707         517.018          44.000  
  21624385.190      -42465.848         761.673          44.000  
  20226047.381       18906.139        -330.142          44.000  
  22717955.086     -110670.688        1989.521          44.000  
  22048780.680     -128230.492        2297.809          44.000  
  25117843.083      218835.451       -3892.509          44.000  
  24955547.786      -91956.557        1627.412          44.000  
  22538544.599      216090.176       -3848.128          44.000  
 14 12 20  0  0 59.0000000  0 13G 1G 2G 3G32G20G23G 6G17G 9G10G11G12
                                G28
  23745097.780      193766.471       -3325.193          44.000  
  24896847.906      -85193.146        1481.278          44.000  
  22037806.308      210573.303       -3609.896          44.000  
  25684801.355      263982.761       -4533.588          44.000  
  21091523.003      182947.709       -3178.094          44.000  
  22474244.996      -29737.347         516.656          44.000  
  21624239.690      -43227.745         761.703          44.000  
  20226110.672       19236.289        -330.383          44.000  
  22717576.574     -112659.955        1989.051          44.000  
  22048343.500     -130528.211        2297.088          44.000  
  25118583.530      222727.545       -3892.101          44.000  
  24955238.446      -93583.361        1626.386          44.000  
  22539277.683      219938.431       -3847.796          44.000  
 14 12 20  0  1  0.0000000  0 13G 1G 2G 3G32G20G23G 6G17G 9G10G11G12
                                G28
  23745730.717      197091.597       -3324.881          44.000  
  24896566.452      -86674.687        1481.692          44.000  
  22038493.847      214182.714       -3609.451          44.000  
  25685664.303      268516.435       -4533.373          44.000  
  21092128.648      186126.103       -3178.174          44.000  
  22474147.013      -30253.611         517.183          44.000  
  21624094.661      -43989.590         762.269          44.000  
  20226174.226       19566.864        -330.163          44.000  
  22717198.183     -114649.072        1989.556          44.000  
  22047906.930     -132825.672        2297.719          44.000  
  25119324.274      226619.573       -3891.673          44.000  
  24954928.565      -95209.853        1626.608          44.000  
  22540010.627      223786.830       -3847.969          44.000  
 14 12 20  0  1  1.0000000  0 13G 1G 2G 3G32G20G23G 6G17G 9G10G11G12
                                G28
  23746363.549      200416.388       -3324.539          44.000  
  24896284.962      -88156.615        1482.478          44.000  
  22039180.914      217792.013       -3608.716          44.000  
  25686527.373      273049.721       -4533.048          44.000  
  21092734.065      189304.472       -3178.970          44.000  
  22474049.589      -30769.822         516.490          44.000  
  21623949.912      -44751.667         762.724          44.000  
  20226236.960       19897.523        -330.798          44.000  
  22716819.915     -116638.330        1989.307          44.000  
  22047469.785     -135123.162        2297.594          44.000  
  25120065.525      230511.271       -3891.308          44.000  
  24954619.609      -96836.280        1626.184          44.000  
  22540742.960      227635.077       -3848.352          44.000  
 14 12 20  0  1  2.0000000  0 13G 1G 2G 3G32G20G23G 6G17G 9G10G11G12
                                G28
  23746996.189      203740.975       -3324.713          44.000  
  24896003.036      -89638.811        1481.910          44.000  
  22039868.208      221401.313       -3609.715          44.000  
  25687389.711      277582.713       -4533.615          44.000  
  21093339.187      192482.951       -3179.109          44.000  
  22473951.763      -31285.793         515.729          44.000  
  21623805.651      -45513.844         762.221          44.000  
  20226299.990       20228.455        -331.326          44.000  
  22716441.699     -118627.574        1988.933          44.000  
  22047033.355     -137420.547        2297.072          44.000  
  25120806.269      234402.792       -3891.256          44.000  
  24954310.304      -98462.519        1626.113          44.000  
  22541475.398      231483.329       -3848.231          44.000  
 14 12 20  0  1  3.0000000  0 13G 1G 2G 3G32G20G23G 6G17G 9G10G11G12
                                G28
  23747628.812      207065.910       -3324.795          44.000  
  24895721.337      -91120.714        1482.092          44.000  
  22040556.358      225011.207       -3610.260          44.000  
  25688253.130      282115.994       -4533.083          44.000  
  21093944.657      195662.093       -3179.385          44.000  
  22473854.024      -31800.976         514.726          44.000  
  21623660.238      -46275.553         761.450          44.000  
  20226362.985       20560.185        -332.027          44.000  
  22716063.518     -120616.282        1988.335          44.000  
  22046596.437     -139717.266        2296.275          44.000  
  25121547.432      238294.670       -3891.772          44.000  
  24954001.697     -100088.054        1624.892          44.000  
  22542208.708      235332.125       -3848.937          44.000  
 14 12 20  0  1  4.0000000  0 13G 1G 2G 3G32G20G23G 6G17G 9G10G11G12
                                G28
  23748261.783      210390.826       -3324.849          44.000  
  24895439.412      -92602.694        1482.007          44.000  
  22041243.338      228621.297       -3610.153          44.000  
  25689116.061      286649.156       -4533.127          44.000  
  21094549.935      198841.520       -3179.342          44.000  
  22473756.373      -32315.762         514.715          44.000  
  21623515.681      -47037.168         761.581          44.000  
  20226426.329       20892.345        -332.659          44.000  
  22715684.761     -122604.774        1988.839          44.000  
  22046159.309     -142013.693        2296.234          44.000  
  25122287.688      242186.526       -3891.560          44.000  
  24953692.985     -101713.207        1624.867          44.000  
  22542941.024      239181.103       -3849.077          44.000  
 14 12 20  0  1  5.0000000  0 13G 1G 2G 3G32G20G23G 6G17G 9G10G11G12
                                G28
  23748894.232      213716.019       -3324.955          44.000  
  24895157.992      -94084.439        1481.659          44.000  
  22041930.161      232231.894       -3610.869          44.000  
  25689978.032      291182.541       -4533.213          44.000  
  21095154.882      202021.553       -3179.886          44.000  
  22473658.826      -32829.839         513.508          44.000  
  21623370.983      -47798.392         761.261          44.000  
  20226489.970       21225.241        -333.640          44.000  
  22715307.679     -124592.788        1988.051          44.000  
  22045722.512     -144309.521        2295.722          44.000  
  25123028.432      246078.690       -3892.295          44.000  
  24953384.221     -103337.676        1624.589          44.000  
  22543673.916      243030.558       -3849.625          44.000  
 14 12 20  0  1  6.0000000  0 13G 1G 2G 3G32G20G23G 6G17G 9G10G11G12
                                G28
  23749527.081      217041.082       -3325.208          44.000  
  24894876.398      -95566.374        1482.093          44.000  
  22042617.420      235842.592       -3610.750          44.000  
  25690841.748      295715.708       -4533.191          44.000  
  21095760.090      205201.773       -3180.449          44.000  
  22473560.669      -33343.607         513.565          44.000  
  21623226.199      -48559.640         761.099          44.000  
  20226554.205       21558.500        -333.180          44.000  
  22714929.149     -126580.724        1988.306          44.000  
  22045285.698     -146605.165        2295.645          44.000  
  25123769.246      249970.741       -3891.912          44.000  
  24953074.741     -104961.892        1624.430          44.000  
  22544406.354      246880.093       -3849.237          44.000  
 14 12 20  0  1  7.0000000  0 13G 1G 2G 3G32G20G23G 6G17G 9G10G11G12
                                G28
  23750160.646      220366.523       -3325.280          44.000  
  24894594.245      -97047.983        1482.250          44.000  
  22043305.046      239453.901       -3610.489          44.000  
  25691705.115      300249.177       -4532.633          44.000  
  21096366.049      208382.694       -3180.456          44.000  
  22473463.855      -33856.573         513.778          44.000  
  21623082.392      -49320.381         761.087          44.000  
  20226617.758       21892.561        -333.358          44.000  
  22714550.968     -128568.068        1987.704          44.000  
  22044848.954     -148900.113        2295.535          44.000  
  25124509.834      253863.174       -3891.819          44.000  
  24952766.169     -106585.348        1623.847          44.000  
  22545138.932      250730.197       -3849.460          44.000  
 14 12 20  0  1  8.0000000  0 13G 1G 2G 3G32G20G23G 6G17G 9G10G11G12
                                G28
  23750794.316      223692.001       -3325.935          44.000  
  24894312.861      -98529.616        1481.742          44.000  
  22043992.253      243065.448       -3611.608          44.000  
  25692567.539      304782.596       -4533.324          44.000  
  21096971.188      211563.951       -3182.056          44.000  
  22473366.936      -34369.078         511.945          44.000  
  21622937.241      -50080.979         760.703          44.000  
  20226681.469       22227.119        -335.079          44.000  
  22714173.485     -130555.174        1986.735          44.000  
  22044412.769     -151194.720        2294.640          44.000  
  25125251.241      257755.656       -3892.479          44.000  
  24952456.864     -108208.374        1622.808          44.000  
  22545872.242      254580.536       -3850.377          44.000  
 14 12 20  0  1  9.0000000  0 13G 1G 2G 3G32G20G23G 6G17G 9G10G11G12
                                G28
  23751427.462      227017.580       -3325.332          44.000  
  24894031.074     -100011.212        1481.746          44.000  
  22044679.966      246677.341       -3611.784          44.000  
  25693430.575      309316.039       -4532.959          44.000  
  21097576.850      214745.616       -3181.502          44.000  
  22473269.913      -34881.058         512.250          44.000  
  21622792.858      -50841.378         760.787          44.000  
  20226745.913       22562.237        -334.698          44.000  
  22713795.792     -132541.965        1987.162          44.000  
  22043976.845     -153488.913        2294.186          44.000  
  25125992.282      261648.256       -3892.433          44.000  
  24952148.745     -109830.913        1622.377          44.000  
  22546604.889      258431.172       -3850.488          44.000  
 14 12 20  0  1 10.0000000  0 13G 1G 2G 3G32G20G23G 6G17G 9G10G11G12
                                G28
  23752060.399      230343.230       -3325.718          44.000  
  24893749.550     -101492.779        1481.363          44.000  
  22045367.330      250289.512       -3612.810          44.000  
  25694292.790      313849.501       -4533.907          44.000  
  21098182.460      217927.694       -3183.014          44.000  
  22473173.291      -35392.524         511.188          44.000  
  21622647.846      -51601.583         759.707          44.000  
  20226810.793       22897.887        -336.039          44.000  
  22713417.663     -134528.471        1985.768          44.000  
  22043540.205     -155782.719        2293.222          44.000  
  25126732.869      265540.938       -3892.948          44.000  
  24951840.173     -111452.981        1621.788          44.000  
  22547338.322      262282.096       -3851.039          44.000  
 14 12 20  0  1 11.0000000  0 13G 1G 2G 3G32G20G23G 6G17G 9G10G11G12
                                G28
  23752693.807      233668.418       -3325.159          44.000  
  24893468.008     -102974.867        1482.525          44.000  
  22046055.201      253901.462       -3612.059          44.000  
  25695156.122      318382.394       -4532.375          44.000  
  21098788.541      221109.607       -3181.887          44.000  
  22473076.408      -35904.020         511.896          44.000  
  21622503.184      -52362.137         760.672          44.000  
  20226874.626       23233.515        -335.923          44.000  
  22713039.674     -136515.245        1986.462          44.000  
  22043103.950     -158076.662        2294.340          44.000  
  25127473.491      269433.172       -3892.169          44.000  
  24951532.072     -113075.133        1622.397          44.000  
  22548071.004      266132.740       -3850.300          44.000  
 14 12 20  0  1 12.0000000  0 13G 1G 2G 3G32G20G23G 6G17G 9G10G11G12
                                G28
  23753326.343      236993.510       -3325.727          44.000  
  24893186.048     -104457.093        1481.692          44.000  
  22046743.280      257513.557       -3612.280          44.000  
  25696019.035      322915.141       -4533.151          44.000  
  21099394.499      224291.748       -3182.770          44.000  
  22472979.908      -36415.173         510.522          44.000  
  21622358.644      -53122.676         760.078          44.000  
  20226938.336       23569.531        -337.278          44.000  
  22712662.156     -138501.887        1986.121          44.000  
  22042667.572     -160370.386        2292.927          44.000  
  25128214.427      273325.327       -3892.344          44.000  
  24951223.622     -114696.980        1621.250          44.000  
  22548803.948      269983.502       -3851.052          44.000  
 14 12 20  0  1 13.0000000  0 13G 1G 2G 3G32G20G23G 6G17G 9G10G11G12
                                G28
  23753959.751      240318.688       -3325.498          44.000  
  24892904.384     -105939.304        1481.713          44.000  
  22047430.784      261125.942       -3613.547          44.000  
  25696881.896      327447.890       -4533.240          44.000  
  21100000.493      227474.294       -3182.501          44.000  
  22472882.710      -36925.828         509.812          44.000  
  21622214.261      -53883.003         759.990          44.000  
  20227002.222       23906.086        -337.068          44.000  
  22712285.319     -140488.226        1985.729          44.000  
  22042231.526     -162663.694        2293.087          44.000  
  25128955.032      277217.586       -3893.170          44.000  
  24950915.329     -116318.359        1620.485          44.000  
  22549537.207      273834.540       -3851.901          44.000  
 14 12 20  0  1 14.0000000  0 13G 1G 2G 3G32G20G23G 6G17G 9G10G11G12
                                G28
  23754592.845      243644.367       -3325.543          44.000  
  24892621.987     -107421.066        1481.998          44.000  
  22048118.811      264739.054       -3612.573          44.000  
  25697744.199      331981.021       -4532.911          44.000  
  21100606.452      230657.627       -3182.725          44.000  
  22472785.670      -37435.553         509.570          44.000  
  21622069.459      -54642.735         760.163          44.000  
  20227067.485       24243.590        -337.667          44.000  
  22711907.591     -142473.875        1985.779          44.000  
  22041795.376     -164956.221        2293.055          44.000  
  25129696.283      281110.350       -3892.338          44.000  
  24950607.071     -117938.860        1620.699          44.000  
  22550269.802      277686.266       -3851.917          44.000  
 14 12 20  0  1 15.0000000  0 13G 1G 2G 3G32G20G23G 6G17G 9G10G11G12
                                G28
  23755225.712      246969.731       -3325.186          44.000  
  24892340.148     -108903.199        1482.968          44.000  
  22048806.437      268352.082       -3612.597          44.000  
  25698607.112      336513.815       -4532.388          44.000  
  21101212.254      233840.999       -3182.726          44.000  
  22472689.240      -37945.150         510.075          44.000  
  21621925.041      -55402.654         760.843          44.000  
  20227131.877       24581.249        -337.062          44.000  
  22711529.515     -144459.614        1985.632          44.000  
  22041360.359     -167248.728        2292.929          44.000  
  25130437.254      285002.823       -3891.805          44.000  
  24950298.604     -119559.263        1620.464          44.000  
  22551003.356      281537.904       -3851.083          44.000  
 14 12 20  0  1 16.0000000  0 13G 1G 2G 3G32G20G23G 6G17G 9G10G11G12
                                G28
  23755858.212      250294.476       -3325.513          44.000  
  24892058.118     -110386.013        1482.101          44.000  
  22049493.975      271964.703       -3613.591          44.000  
  25699469.711      341045.887       -4532.873          44.000  
  21101818.701      237024.036       -3184.208          44.000  
  22472592.461      -38454.963         508.888          44.000  
  21621780.588      -56163.099         760.107          44.000  
  20227196.216       24918.733        -337.848          44.000  
  22711152.241     -146445.775        1984.991          44.000  
  22040924.243     -169541.550        2291.903          44.000  
  25131178.207      288894.675       -3892.287          44.000  
  24949990.747     -121179.913        1620.049          44.000  
  22551736.754      285389.083       -3852.248          44.000  
 14 12 20  0  1 17.0000000  0 13G 1G 2G 3G32G20G23G 6G17G 9G10G11G12
                                G28
  23756491.236      253619.863       -3325.542          44.000  
  24891776.088     -111868.209        1482.691          44.000  
  22050181.252      275578.218       -3613.366          44.000  
  25700332.293      345578.532       -4532.364          44.000  
  21102425.236      240208.050       -3184.090          44.000  
  22472495.804      -38963.668         508.585          44.000  
  21621636.449      -56922.765         759.993          44.000  
  20227261.619       25257.332        -338.547          44.000  
  22710774.915     -148431.064        1985.308          44.000  
  22040488.180     -171833.395        2292.246          44.000  
  25131919.423      292787.192       -3892.353          44.000  
  24949682.471     -122799.516        1619.465          44.000  
  22552469.646      289241.146       -3852.478          44.000  
 14 12 20  0  1 18.0000000  0 13G 1G 2G 3G32G20G23G 6G17G 9G10G11G12
                                G28
  23757124.173      256945.161       -3324.950          44.000  
  24891494.790     -113350.581        1482.943          44.000  
  22050869.140      279191.854       -3613.562          44.000  
  25701195.608      350111.014       -4532.219          44.000  
  21103031.334      243392.267       -3183.953          44.000  
  22472399.601      -39472.055         508.264          44.000  
  21621491.927      -57682.422         759.899          44.000  
  20227326.639       25596.287        -339.320          44.000  
  22710397.467     -150416.242        1985.399          44.000  
  22040052.081     -174125.039        2291.685          44.000  
  25132660.778      296679.635       -3892.225          44.000  
  24949375.208     -124418.831        1618.630          44.000  
  22553203.672      293093.301       -3851.692          44.000  
 14 12 20  0  1 19.0000000  0 13G 1G 2G 3G32G20G23G 6G17G 9G10G11G12
                                G28
  23757757.145      260270.363       -3324.972          44.000  
  24891213.178     -114833.100        1483.187          44.000  
  22051557.429      282805.618       -3613.583          44.000  
  25702058.660      354643.305       -4532.184          44.000  
  21103637.345      246576.711       -3184.873          44.000  
  22472303.049      -39980.095         507.619          44.000  
  21621347.299      -58442.062         759.639          44.000  
  20227390.733       25935.611        -339.390          44.000  
  22710019.390     -152401.307        1984.999          44.000  
  22039616.018     -176416.451        2291.480          44.000  
  25133401.854      300572.001       -3892.221          44.000  
  24949067.177     -126037.843        1618.922          44.000  
  22553937.541      296945.549       -3852.102          44.000  
 14 12 20  0  1 20.0000000  0 13G 1G 2G 3G32G20G23G 6G17G 9G10G11G12
                                G28
  23758390.483      263595.674       -3324.993          44.000  
  24890930.851     -116315.559        1482.982          44.000  
  22052245.002      286419.715       -3614.019          44.000  
  25702921.591      359175.638       -4531.713          44.000  
  21104243.967      249761.585       -3184.354          44.000  
  22472206.235      -40487.595         507.144          44.000  
  21621203.230      -59201.479         759.708          44.000  
  20227455.561       26275.498        -339.330          44.000  
  22709642.221     -154386.054        1984.929          44.000  
  22039181.281     -178707.437        2291.500          44.000  
  25134142.895      304464.471       -3892.293          44.000  
  24948759.931     -127656.363        1618.910          44.000  
  22554670.712      300798.112       -3851.832          44.000  
 14 12 20  0  1 21.0000000  0 13G 1G 2G 3G32G20G23G 6G17G 9G10G11G12
                                G28
  23759023.647      266920.829       -3324.972          44.000  
  24890648.402     -117798.225        1483.065          44.000  
  22052933.239      290033.880       -3614.220          44.000  
  25703784.941      363707.743       -4531.621          44.000  
  21104850.432      252946.614       -3185.532          44.000  
  22472110.259      -40994.831         507.466          44.000  
  21621058.864      -59960.935         759.654          44.000  
  20227520.423       26615.687        -340.222          44.000  
  22709265.890     -156370.729        1984.701          44.000  
  22038745.933     -180998.257        2291.081          44.000  
  25134884.128      308356.812       -3892.448          44.000  
  24948452.144     -129274.637        1618.294          44.000  
  22555403.551      304650.714       -3852.812          44.000  
 14 12 20  0  1 22.0000000  0 13G 1G 2G 3G32G20G23G 6G17G 9G10G11G12
                                G28
  23759656.653      270245.993       -3324.480          44.000  
  24890367.105     -119280.965        1482.483          44.000  
  22053621.737      293648.273       -3614.608          44.000  
  25704647.418      368239.763       -4531.144          44.000  
  21105456.531      256131.969       -3185.347          44.000  
  22472014.004      -41501.624         506.658          44.000  
  21620915.005      -60720.284         759.162          44.000  
  20227585.390       26956.328        -341.196          44.000  
  22708888.163     -158355.207        1984.148          44.000  
  22038309.817     -183288.770        2289.863          44.000  
  25135625.256      312249.158       -3892.765          44.000  
  24948143.955     -130892.523        1617.961          44.000  
  22556137.088      308503.512       -3853.278          44.000  
 14 12 20  0  1 23.0000000  0 13G 1G 2G 3G32G20G23G 6G17G 9G10G11G12
                                G28
  23760289.678      273570.918       -3325.789          44.000  
  24890085.493     -120763.962        1481.808          44.000  
  22054309.956      297262.665       -3615.895          44.000  
  25705509.842      372771.472       -4532.446          44.000  
  21106062.978      259317.395       -3186.392          44.000  
  22471918.027      -42008.209         505.496          44.000  
  21620771.459      -61479.734         758.262          44.000  
  20227650.218       27297.224        -341.657          44.000  
  22708510.296     -160339.678        1983.686          44.000  
  22037873.474     -185579.181        2289.366          44.000  
  25136366.175      316141.298       -3893.280          44.000  
  24947836.116     -132510.252        1616.318          44.000  
  22556870.591      312356.300       -3853.661          44.000  
 14 12 20  0  1 24.0000000  0 13G 1G 2G 3G32G20G23G 6G17G 9G10G11G12
                                G28
  23760923.260      276896.325       -3325.241          44.000  
  24889804.021     -122246.545        1482.703          44.000  
  22054998.106      300877.757       -3614.757          44.000  
  25706372.494      377303.587       -4532.250          44.000  
  21106669.844      262503.614       -3186.195          44.000  
  22471822.522      -42513.905         505.566          44.000  
  21620627.966      -62238.602         758.998          44.000  
  20227715.429       27639.037        -342.385          44.000  
  22708133.266     -162323.483        1983.785          44.000  
  22037438.056     -187868.810        2289.709          44.000  
  25137107.041      320033.928       -3892.752          44.000  
  24947528.731     -134127.113        1616.943          44.000  
  22557603.709      316209.753       -3853.667          44.000  
 14 12 20  0  1 25.0000000  0 13G 1G 2G 3G32G20G23G 6G17G 9G10G11G12
                                G28
  23761555.883      280221.436       -3324.636          44.000  
  24889522.532     -123729.479        1483.393          44.000  
  22055686.290      304492.785       -3614.691          44.000  
  25707235.076      381835.341       -4531.057          44.000  
  21107276.117      265689.856       -3185.884          44.000  
  22471726.232      -43019.451         505.711          44.000  
  21620484.089      -62997.662         759.378          44.000  
  20227779.978       27981.017        -341.406          44.000  
  22707756.027     -164307.376        1984.306          44.000  
  22037003.040     -190158.414        2290.215          44.000  
  25137847.611      323926.283       -3891.883          44.000  
  24947221.589     -135743.875        1617.385          44.000  
  22558338.015      320063.102       -3853.091          44.000  
 14 12 20  0  1 26.0000000  0 13G 1G 2G 3G32G20G23G 6G17G 9G10G11G12
                                G28
  23762188.453      283546.305       -3324.992          44.000  
  24889240.449     -125212.706        1482.717          44.000  
  22056374.125      308107.796       -3615.111          44.000  
  25708097.291      386366.760       -4531.407          44.000  
  21107882.879      268876.174       -3186.278          44.000  
  22471630.238      -43524.813         504.751          44.000  
  21620340.230      -63756.834         758.950          44.000  
  20227845.416       28323.222        -342.624          44.000  
  22707378.195     -166291.287        1983.767          44.000  
  22036567.343     -192447.940        2289.479          44.000  
  25138588.564      327818.396       -3892.415          44.000  
  24946914.413     -137360.484        1616.106          44.000  
  22559071.831      323916.420       -3853.717          44.000  
 14 12 20  0  1 27.0000000  0 13G 1G 2G 3G32G20G23G 6G17G 9G10G11G12
                                G28
  23762821.791      286871.416       -3325.482          44.000  
  24888959.204     -126695.744        1482.895          44.000  
  22057063.007      311723.266       -3615.851          44.000  
  25708959.698      390898.352       -4531.111          44.000  
  21108489.518      272063.054       -3187.249          44.000  
  22471533.966      -44029.493         503.640          44.000  
  21620196.370      -64515.658         758.639          44.000  
  20227911.535       28666.124        -343.151          44.000  
  22707001.026     -168274.737        1983.340          44.000  
  22036132.117     -194736.914        2288.661          44.000  
  25139329.309      331710.777       -3892.780          44.000  
  24946606.783     -138976.456        1615.792          44.000  
  22559805.368      327770.171       -3853.605          44.000  
 14 12 20  0  1 28.0000000  0 13G 1G 2G 3G32G20G23G 6G17G 9G10G11G12
                                G28
  23763454.693      290196.651       -3325.510          44.000  
  24888677.627     -128178.714        1483.062          44.000  
  22057751.087      315339.086       -3616.203          44.000  
  25709821.809      395429.985       -4531.911          44.000  
  21109096.384      275250.369       -3187.466          44.000  
  22471438.356      -44533.620         503.430          44.000  
  21620052.144      -65274.242         758.531          44.000  
  20227976.659       29009.612        -343.799          44.000  
  22706624.538     -170257.851        1982.923          44.000  
  22035697.397     -197025.438        2288.313          44.000  
  25140070.489      335603.304       -3892.221          44.000  
  24946300.532     -140591.920        1615.110          44.000  
  22560538.871      331624.238       -3854.230          44.000  
 14 12 20  0  1 29.0000000  0 13G 1G 2G 3G32G20G23G 6G17G 9G10G11G12
                                G28
  23764088.032      293522.087       -3325.209          44.000  
  24888395.754     -129661.546        1483.318          44.000  
  22058439.428      318955.318       -3616.416          44.000  
  25710684.478      399961.724       -4531.875          44.000  
  21109703.652      278438.166       -3188.427          44.000  
  22471342.851      -45037.125         503.712          44.000  
  21619908.302      -66032.530         758.008          44.000  
  20228041.801       29353.738        -344.690          44.000  
  22706247.090     -172240.571        1982.603          44.000  
  22035261.508     -199313.468        2288.262          44.000  
  25140811.914      339496.004       -3892.788          44.000  
  24945993.740     -142206.804        1614.792          44.000  
  22561272.251      335478.698       -3854.640          44.000  
 14 12 20  0  1 30.0000000  0 13G 1G 2G 3G32G20G23G 6G17G 9G10G11G12
                                G28
  23764720.707      296847.618       -3325.791          44.000  
  24888113.775     -131144.345        1482.486          44.000  
  22059128.101      322571.887       -3616.769          44.000  
  25711547.461      404493.495       -4531.709          44.000  
  21110310.588      281626.399       -3188.516          44.000  
  22471247.066      -45540.090         502.598          44.000  
  21619764.442      -66790.591         758.035          44.000  
  20228108.042       29698.451        -344.560          44.000  
  22705870.322     -174222.973        1981.825          44.000  
  22034826.718     -201601.061        2287.144          44.000  
  25141553.391      343388.857       -3892.845          44.000  
  24945686.930     -143821.187        1613.838          44.000  
  22562006.521      339333.482       -3855.000          44.000  
 14 12 20  0  1 31.0000000  0 13G 1G 2G 3G32G20G23G 6G17G 9G10G11G12
                                G28
  23765354.376      300173.650       -3326.671          44.000  
  24887831.885     -132626.679        1481.858          44.000  
  22059817.018      326189.194       -3617.956          44.000  
  25712410.007      409025.697       -4532.963          44.000  
  21110917.681      284815.463       -3189.846          44.000  
  22471151.736      -46042.127         501.099          44.000  
  21619620.600      -67548.029         757.037          44.000  
  20228174.370       30044.102        -346.756          44.000  
  22705493.188     -176204.650        1980.635          44.000  
  22034391.876     -203887.839        2286.414          44.000  
  25142294.415      347282.220       -3893.633          44.000  
  24945380.190     -145434.676        1612.665          44.000  
  22562739.727      343188.937       -3856.283          44.000  
 14 12 20  0  1 32.0000000  0 13G 1G 2G 3G32G20G23G 6G17G 9G10G11G12
                                G28
  23765987.680      303499.510       -3325.454          44.000  
  24887549.435     -134109.257        1483.178          44.000  
  22060506.040      329806.518       -3617.545          44.000  
  25713272.642      413557.640       -4531.230          44.000  
  21111524.617      288004.624       -3190.227          44.000  
  22471056.807      -46543.922         501.363          44.000  
  21619476.234      -68305.554         756.989          44.000  
  20228240.698       30390.038        -345.709          44.000  
  22705116.420     -178186.306        1981.838          44.000  
  22033957.767     -206174.503        2286.385          44.000  
  25143035.456      351175.380       -3893.534          44.000  
  24945073.258     -147047.964        1613.111          44.000  
  22563473.788      347044.409       -3855.806          44.000  
 14 12 20  0  1 33.0000000  0 13G 1G 2G 3G32G20G23G 6G17G 9G10G11G12
                                G28
  23766620.529      306824.540       -3324.750          44.000  
  24887266.567     -135592.716        1482.741          44.000  
  22061194.015      333423.247       -3616.882          44.000  
  25714135.677      418088.670       -4531.342          44.000  
  21112131.710      291193.299       -3189.228          44.000  
  22470961.092      -47046.096         501.341          44.000  
  21619331.851      -69063.782         758.164          44.000  
  20228307.376       30735.609        -346.006          44.000  
  22704739.792     -180168.574        1982.002          44.000  
  22033523.379     -208461.658        2286.699          44.000  
  25143776.532      355067.760       -3892.535          44.000  
  24944766.134     -148661.675        1613.562          44.000  
  22564208.111      350899.265       -3855.076          44.000  
 14 12 20  0  1 34.0000000  0 13G 1G 2G 3G32G20G23G 6G17G 9G10G11G12
                                G28
  23767253.484      310149.938       -3325.732          44.000  
  24886984.554     -137075.846        1482.233          44.000  
  22061881.850      337040.592       -3618.436          44.000  
  25714998.573      422620.005       -4531.604          44.000  
  21112739.100      294382.658       -3189.733          44.000  
  22470866.495      -47547.460         500.833          44.000  
  21619187.922      -69821.524         756.708          44.000  
  20228373.704       31082.007        -347.493          44.000  
  22704362.955     -182150.251        1980.834          44.000  
  22033088.275     -210748.123        2285.517          44.000  
  25144518.148      358960.533       -3893.390          44.000  
  24944459.394     -150274.619        1611.843          44.000  
  22564942.206      354754.688       -3855.591          44.000  
 14 12 20  0  1 35.0000000  0 13G 1G 2G 3G32G20G23G 6G17G 9G10G11G12
                                G28
  23767886.386      313475.397       -3326.721          44.000  
  24886702.681     -138558.980        1482.255          44.000  
  22062571.046      340658.205       -3618.611          44.000  
  25715860.579      427151.308       -4532.537          44.000  
  21113346.018      297572.395       -3191.153          44.000  
  22470771.967      -48048.347         499.617          44.000  
  21619044.359      -70579.089         756.872          44.000  
  20228439.771       31428.935        -348.694          44.000  
  22703985.821     -184131.647        1980.130          44.000  
  22032653.259     -213034.214        2284.602          44.000  
  25145259.172      362853.363       -3893.797          44.000  
  24944152.602     -151887.112        1610.915          44.000  
  22565676.110      358610.373       -3856.375          44.000  
 14 12 20  0  1 36.0000000  0 13G 1G 2G 3G32G20G23G 6G17G 9G10G11G12
                                G28
  23768520.160      316800.904       -3325.084          44.000  
  24886420.476     -140042.147        1482.679          44.000  
  22063259.458      344276.080       -3618.050          44.000  
  25716722.864      431682.583       -4530.527          44.000  
  21113953.583      300762.462       -3189.948          44.000  
  22470677.125      -48548.767         499.935          44.000  
  21618899.819      -71336.513         756.955          44.000  
  20228505.750       31776.352        -347.396          44.000  
  22703609.036     -186112.809        1981.538          44.000  
  22032217.928     -215319.946        2285.934          44.000  
  25146000.038      366746.240       -3892.592          44.000  
  24943845.949     -153499.179        1612.337          44.000  
  22566410.468      362466.284       -3856.549          44.000  
 14 12 20  0  1 37.0000000  0 13G 1G 2G 3G32G20G23G 6G17G 9G10G11G12
                                G28
  23769152.905      320126.469       -3325.854          44.000  
  24886138.411     -141525.283        1482.610          44.000  
  22063948.095      347894.238       -3619.058          44.000  
  25717585.568      436213.826       -4530.885          44.000  
  21114560.972      303952.923       -3191.071          44.000  
  22470582.196      -49048.678         499.533          44.000  
  21618755.663      -72093.749         756.801          44.000  
  20228572.846       32124.286        -348.923          44.000  
  22703231.692     -188093.694        1980.161          44.000  
  22031783.488     -217605.287        2285.638          44.000  
  25146741.079      370639.189       -3893.531          44.000  
  24943539.366     -155110.804        1611.106          44.000  
  22567144.284      366322.455       -3856.859          44.000  
 14 12 20  0  1 38.0000000  0 13G 1G 2G 3G32G20G23G 6G17G 9G10G11G12
                                G28
  23769786.365      323451.857       -3325.870          44.000  
  24885855.996     -143008.654        1482.944          44.000  
  22064636.821      351512.456       -3618.789          44.000  
  25718447.748      440744.833       -4531.438          44.000  
  21115167.891      307143.514       -3190.687          44.000  
  22470486.900      -49548.330         498.994          44.000  
  21618611.768      -72851.050         757.442          44.000  
  20228639.052       32472.532        -348.810          44.000  
  22702854.558     -190074.514        1980.622          44.000  
  22031348.663     -219890.509        2284.956          44.000  
  25147482.016      374531.998       -3893.052          44.000  
  24943233.464     -156722.189        1610.736          44.000  
  22567878.258      370178.654       -3856.402          44.000  
 14 12 20  0  1 39.0000000  0 13G 1G 2G 3G32G20G23G 6G17G 9G10G11G12
                                G28
  23770418.447      326777.783       -3325.233          44.000  
  24885574.263     -144491.540        1483.360          44.000  
  22065325.302      355131.418       -3619.042          44.000  
  25719310.609      445276.275       -4531.046          44.000  
  21115775.525      310334.949       -3191.082          44.000  
  22470392.268      -50047.028         498.566          44.000  
  21618468.223      -73607.704         757.156          44.000  
  20228705.328       32821.737        -348.972          44.000  
  22702478.506     -192054.617        1980.055          44.000  
  22030914.292     -222174.871        2284.665          44.000  
  25148223.057      378425.345       -3892.853          44.000  
  24942927.614     -158332.670        1610.523          44.000  
  22568612.057      374035.583       -3856.574          44.000  
 14 12 20  0  1 40.0000000  0 13G 1G 2G 3G32G20G23G 6G17G 9G10G11G12
                                G28
  23771051.332      330103.209       -3325.348          44.000  
  24885292.407     -145974.976        1483.504          44.000  
  22066014.376      358750.115       -3618.759          44.000  
  25720172.684      449807.165       -4530.289          44.000  
  21116383.194      313526.207       -3191.151          44.000  
  22470298.001      -50545.793         498.500          44.000  
  21618324.712      -74364.752         756.724          44.000  
  20228772.633       33170.923        -349.672          44.000  
  22702101.913     -194034.976        1980.801          44.000  
  22030479.625     -224459.403        2284.381          44.000  
  25148963.434      382318.204       -3892.415          44.000  
  24942621.572     -159943.230        1610.542          44.000  
  22569346.205      377892.209       -3856.558          44.000  
 14 12 20  0  1 41.0000000  0 13G 1G 2G 3G32G20G23G 6G17G 9G10G11G12
                                G28
  23771684.234      333428.745       -3326.011          44.000  
  24885010.429     -147458.366        1482.952          44.000  
  22066703.747      362369.163       -3619.690          44.000  
  25721035.231      454338.082       -4531.112          44.000  
  21116990.706      316717.893       -3192.269          44.000  
  22470203.299      -51043.996         497.263          44.000  
  21618181.167      -75121.565         756.632          44.000  
  20228839.555       33520.682        -350.484          44.000  
  22701725.110     -196015.030        1979.657          44.000  
  22030045.446     -226743.520        2283.404          44.000  
  25149704.807      386211.211       -3892.935          44.000  
  24942315.461     -161553.301        1609.547          44.000  
  22570080.475      381749.131       -3857.982          44.000  
 14 12 20  0  1 42.0000000  0 13G 1G 2G 3G32G20G23G 6G17G 9G10G11G12
                                G28
  23772317.921      336754.615       -3325.681          44.000  
  24884728.555     -148941.479        1483.597          44.000  
  22067392.926      365988.744       -3619.716          44.000  
  25721897.848      458869.237       -4530.216          44.000  
  21117597.921      319910.206       -3191.916          44.000  
  22470108.736      -51541.445         497.697          44.000  
  21618037.080      -75877.938         756.765          44.000  
  20228906.511       33871.234        -349.449          44.000  
  22701348.639     -197994.534        1979.844          44.000  
  22029610.866     -229026.970        2284.275          44.000  
  25150446.075      390104.532       -3892.116          44.000  
  24942009.611     -163162.649        1609.844          44.000  
  22570814.990      385606.604       -3856.918          44.000  
 14 12 20  0  1 43.0000000  0 13G 1G 2G 3G32G20G23G 6G17G 9G10G11G12
                                G28
  23772951.084      340080.351       -3325.761          44.000  
  24884446.787     -150424.782        1483.375          44.000  
  22068082.279      369608.418       -3619.581          44.000  
  25722760.656      463400.186       -4530.735          44.000  
  21118205.607      323102.718       -3192.398          44.000  
  22470014.592      -52038.586         497.738          44.000  
  21617893.796      -76634.320         756.373          44.000  
  20228973.241       34222.109        -350.882          44.000  
  22700972.412     -199973.948        1979.716          44.000  
  22029176.478     -231310.257        2283.584          44.000  
  25151187.133      393997.740       -3893.166          44.000  
  24941703.795     -164771.731        1608.702          44.000  
  22571549.068      389464.131       -3857.642          44.000  
 14 12 20  0  1 44.0000000  0 13G 1G 2G 3G32G20G23G 6G17G 9G10G11G12
                                G28
  23773584.405      343406.111       -3325.753          44.000  
  24884164.791     -151908.110        1483.463          44.000  
  22068771.336      373228.333       -3619.756          44.000  
  25723622.837      467931.087       -4530.600          44.000  
  21118813.346      326295.554       -3192.968          44.000  
  22469919.559      -52535.289         496.775          44.000  
  21617749.535      -77390.593         756.381          44.000  
  20229040.145       34573.460        -350.810          44.000  
  22700596.447     -201953.147        1979.539          44.000  
  22028742.334     -233593.198        2283.205          44.000  
  25151927.703      397890.990       -3893.307          44.000  
  24941397.387     -166380.403        1608.969          44.000  
  22572283.199      393321.870       -3857.365          44.000  
 14 12 20  0  1 45.0000000  0 13G 1G 2G 3G32G20G23G 6G17G 9G10G11G12
                                G28
  23774217.708      346731.832       -3325.904          44.000  
  24883882.359     -153391.530        1483.592          44.000  
  22069459.974      376848.443       -3620.487          44.000  
  25724484.930      472461.865       -4530.823          44.000  
  21119421.922      329488.662       -3193.713          44.000  
  22469825.607      -53031.577         496.055          44.000  
  21617606.077      -78146.764         756.376          44.000  
  20229107.451       34925.226        -352.108          44.000  
  22700220.535     -203932.144        1978.770          44.000  
  22028309.429     -235875.853        2282.457          44.000  
  25152669.861      401784.226       -3893.154          44.000  
  24941091.973     -167988.727        1608.218          44.000  
  22573017.626      397179.769       -3858.165          44.000  
 14 12 20  0  1 46.0000000  0 13G 1G 2G 3G32G20G23G 6G17G 9G10G11G12
                                G28
  23774851.378      350057.859       -3326.097          44.000  
  24883600.469     -154874.700        1483.569          44.000  
  22070148.908      380469.066       -3621.421          44.000  
  25725347.564      476992.858       -4531.806          44.000  
  21120029.556      332682.385       -3194.255          44.000  
  22469731.393      -53527.159         494.935          44.000  
  21617463.195      -78902.528         755.779          44.000  
  20229175.035       35277.755        -353.403          44.000  
  22699844.727     -205910.646        1977.750          44.000  
  22027874.936     -238157.895        2281.743          44.000  
  25153410.710      405677.754       -3894.176          44.000  
  24940786.769     -169596.352        1606.877          44.000  
  22573752.560      401038.173       -3858.746          44.000  
 14 12 20  0  1 47.0000000  0 13G 1G 2G 3G32G20G23G 6G17G 9G10G11G12
                                G28
  23775484.524      353384.048       -3326.837          44.000  
  24883318.613     -156357.772        1482.323          44.000  
  22070838.750      384090.093       -3622.155          44.000  
  25726210.285      481523.948       -4532.100          44.000  
  21120638.150      335876.594       -3194.878          44.000  
  22469637.668      -54022.116         494.735          44.000  
  21617319.196      -79658.000         755.188          44.000  
  20229242.306       35630.937        -353.959          44.000  
  22699468.989     -207888.752        1977.242          44.000  
  22027440.687     -240439.446        2280.754          44.000  
  25154152.030      409571.478       -3894.175          44.000  
  24940480.849     -171203.410        1606.107          44.000  
  22574487.004      404896.929       -3859.679          44.000  
 14 12 20  0  1 48.0000000  0 13G 1G 2G 3G32G20G23G 6G17G 9G10G11G12
                                G28
  23776117.688      356710.395       -3326.686          44.000  
  24883037.019     -157840.748        1482.813          44.000  
  22071527.947      387711.494       -3621.790          44.000  
  25727073.356      486055.122       -4530.933          44.000  
  21121246.552      339071.281       -3194.941          44.000  
  22469543.454      -54516.487         494.107          44.000  
  21617175.912      -80413.232         754.952          44.000  
  20229310.536       35984.710        -354.410          44.000  
  22699092.483     -209866.497        1977.587          44.000  
  22027007.363     -242720.529        2281.133          44.000  
  25154893.629      413465.365       -3893.952          44.000  
  24940175.558     -172809.917        1606.073          44.000  
  22575221.484      408756.036       -3859.122          44.000  
 14 12 20  0  1 49.0000000  0 13G 1G 2G 3G32G20G23G 6G17G 9G10G11G12
                                G28
  23776751.096      360036.894       -3326.430          44.000  
  24882754.726     -159323.612        1482.788          44.000  
  22072217.684      391333.268       -3621.961          44.000  
  25727935.501      490586.350       -4531.363          44.000  
  21121853.785      342266.406       -3195.710          44.000  
  22469449.677      -55010.271         493.333          44.000  
  21617032.279      -81168.189         754.441          44.000  
  20229378.313       36339.104        -354.480          44.000  
  22698716.117     -211843.875        1977.061          44.000  
  22026573.847     -245001.133        2279.945          44.000  
  25155634.949      417359.427       -3894.459          44.000  
  24939869.917     -174415.890        1605.269          44.000  
  22575955.894      412615.507       -3859.501          44.000  
 14 12 20  0  1 50.0000000  0 13G 1G 2G 3G32G20G23G 6G17G 9G10G11G12
                                G28
  23777383.457      363363.193       -3326.054          44.000  
  24882472.504     -160806.731        1483.175          44.000  
  22072907.334      394955.060       -3622.063          44.000  
  25728797.891      495117.307       -4530.722          44.000  
  21122461.855      345461.660       -3195.080          44.000  
  22469356.109      -55503.841         493.412          44.000  
  21616889.030      -81923.232         754.939          44.000  
  20229446.404       36693.759        -355.279          44.000  
  22698340.204     -213821.231        1976.974          44.000  
  22026140.035     -247281.643        2279.924          44.000  
  25156376.531      421253.290       -3893.586          44.000  
  24939564.748     -176021.664        1605.855          44.000  
  22576690.845      416474.951       -3859.436          44.000  
 14 12 20  0  1 51.0000000  0 13G 1G 2G 3G32G20G23G 6G17G 9G10G11G12
                                G28
  23778016.691      366689.601       -3326.501          44.000  
  24882190.840     -162289.799        1483.122          44.000  
  22073596.792      398577.196       -3622.523          44.000  
  25729660.350      499648.286       -4531.722          44.000  
  21123070.292      348657.325       -3195.893          44.000  
  22469263.186      -55996.856         492.396          44.000  
  21616746.165      -82678.047         753.978          44.000  
  20229514.337       37048.981        -355.463          44.000  
  22697964.536     -215798.266        1976.156          44.000  
  22025706.170     -249561.708        2279.252          44.000  
  25157117.886      425147.278       -3894.172          44.000  
  24939259.526     -177626.938        1604.633          44.000  
  22577426.075      420334.710       -3860.349          44.000  
 14 12 20  0  1 52.0000000  0 13G 1G 2G 3G32G20G23G 6G17G 9G10G11G12
                                G28
  23778650.326      370016.467       -3326.859          44.000  
  24881908.757     -163772.462        1482.801          44.000  
  22074286.809      402199.995       -3623.391          44.000  
  25730523.491      504179.651       -4531.315          44.000  
  21123679.095      351853.766       -3196.586          44.000  
  22469170.019      -56488.990         491.750          44.000  
  21616602.393      -83432.282         754.125          44.000  
  20229582.411       37405.120        -356.053          44.000  
  22697588.082     -217774.627        1976.241          44.000  
  22025272.986     -251840.988        2278.872          44.000  
  25157859.433      429041.738       -3894.685          44.000  
  24938954.112     -179231.359        1604.351          44.000  
  22578161.287      424195.133       -3860.136          44.000  
 14 12 20  0  1 53.0000000  0 13G 1G 2G 3G32G20G23G 6G17G 9G10G11G12
                                G28
  23779284.100      373343.090       -3326.605          44.000  
  24881626.744     -165255.441        1482.812          44.000  
  22074976.808      405822.780       -3623.421          44.000  
  25731386.247      508710.689       -4531.796          44.000  
  21124288.334      355050.264       -3197.370          44.000  
  22469076.277      -56980.927         491.084          44.000  
  21616459.388      -84186.660         753.801          44.000  
  20229650.659       37761.468        -357.164          44.000  
  22697212.554     -219751.019        1975.800          44.000  
  22024839.156     -254120.208        2278.233          44.000  
  25158600.718      432935.955       -3894.862          44.000  
  24938648.908     -180835.638        1603.938          44.000  
  22578895.942      428055.484       -3860.762          44.000  
 14 12 20  0  1 54.0000000  0 13G 1G 2G 3G32G20G23G 6G17G 9G10G11G12
                                G28
  23779917.595      376669.880       -3327.309          44.000  
  24881345.325     -166738.293        1482.540          44.000  
  22075666.336      409445.960       -3623.368          44.000  
  25732248.584      513241.827       -4530.691          44.000  
  21124896.858      358247.254       -3197.110          44.000  
  22468982.796      -57472.256         491.013          44.000  
  21616316.140      -84940.756         754.116          44.000  
  20229719.046       38118.464        -357.101          44.000  
  22696836.798     -221727.020        1975.883          44.000  
  22024405.675     -256398.930        2278.498          44.000  
  25159341.899      436830.378       -3893.978          44.000  
  24938343.547     -182439.341        1603.173          44.000  
  22579631.189      431916.217       -3860.739          44.000  
 14 12 20  0  1 55.0000000  0 13G 1G 2G 3G32G20G23G 6G17G 9G10G11G12
                                G28
  23780551.143      379996.527       -3326.661          44.000  
  24881063.486     -168221.341        1483.441          44.000  
  22076355.619      413069.221       -3623.529          44.000  
  25733111.061      517772.725       -4530.549          44.000  
  21125505.121      361444.425       -3197.222          44.000  
  22468889.525      -57963.289         490.942          44.000  
  21616172.856      -85694.878         754.243          44.000  
  20229787.259       38475.762        -357.839          44.000  
  22696460.536     -223702.958        1976.473          44.000  
  22023972.369     -258677.486        2278.916          44.000  
  25160083.289      440724.655       -3894.388          44.000  
  24938038.709     -184042.802        1603.837          44.000  
  22580366.122      435776.988       -3860.450          44.000  
 14 12 20  0  1 56.0000000  0 13G 1G 2G 3G32G20G23G 6G17G 9G10G11G12
                                G28
  23781184.813      383323.159       -3326.406          44.000  
  24880780.688     -169704.468        1483.105          44.000  
  22077045.095      416692.679       -3623.298          44.000  
  25733974.009      522303.538       -4530.704          44.000  
  21126114.151      364641.855       -3197.300          44.000  
  22468797.230      -58453.921         490.445          44.000  
  21616029.712      -86448.904         754.394          44.000  
  20229855.367       38833.516        -357.672          44.000  
  22696085.287     -225678.697        1975.658          44.000  
  22023538.975     -260955.739        2278.292          44.000  
  25160824.400      444618.945       -3893.978          44.000  
  24937734.255     -185645.893        1603.288          44.000  
  22581100.550      439637.951       -3860.958          44.000  
 14 12 20  0  1 57.0000000  0 13G 1G 2G 3G32G20G23G 6G17G 9G10G11G12
                                G28
  23781817.627      386650.059       -3327.281          44.000  
  24880498.937     -171187.375        1482.089          44.000  
  22077734.989      420316.630       -3624.639          44.000  
  25734836.521      526834.526       -4532.192          44.000  
  21126723.076      367839.896       -3199.003          44.000  
  22468704.186      -58943.839         489.085          44.000  
  21615886.707      -87202.546         753.342          44.000  
  20229923.371       39191.978        -359.380          44.000  
  22695709.985     -227653.951        1974.586          44.000  
  22023105.023     -263233.410        2276.749          44.000  
  25161565.825      448513.494       -3895.375          44.000  
  24937429.818     -187248.322        1601.298          44.000  
  22581835.797      443499.364       -3862.520          44.000  
 14 12 20  0  1 58.0000000  0 13G 1G 2G 3G32G20G23G 6G17G 9G10G11G12
                                G28
  23782450.791      389977.092       -3327.039          44.000  
  24880217.168     -172670.197        1483.067          44.000  
  22078424.848      423940.948       -3624.213          44.000  
  25735698.876      531365.590       -4531.379          44.000  
  21127332.036      371038.379       -3198.716          44.000  
  22468611.543      -59433.196         488.532          44.000  
  21615743.546      -87955.942         753.319          44.000  
  20229991.566       39551.063        -359.094          44.000  
  22695334.247     -229628.842        1974.805          44.000  
  22022672.223     -265510.601        2277.236          44.000  
  25162307.092      452408.208       -3894.851          44.000  
  24937125.487     -188850.210        1601.817          44.000  
  22582571.027      447361.111       -3862.134          44.000  
 14 12 20  0  1 59.0000000  0 13G 1G 2G 3G32G20G23G 6G17G 9G10G11G12
                                G28
  23783083.676      393304.172       -3326.896          44.000  
  24879935.312     -174153.043        1482.938          44.000  
  22079114.970      427565.511       -3625.034          44.000  
  25736560.725      535896.609       -4530.767          44.000  
  21127941.468      374237.204       -3198.784          44.000  
  22468519.231      -59922.061         488.607          44.000  
  21615599.878      -88709.190         752.973          44.000  
  20230060.425       39910.643        -360.468          44.000  
  22694958.352     -231603.478        1974.437          44.000  
  22022239.964     -267787.463        2276.645          44.000  
  25163047.976      456302.971       -3894.839          44.000  
  24936820.108     -190451.648        1601.106          44.000  
  22583305.332      451223.101       -3862.160          44.000  
 14 12 20  0  2  0.0000000  0 13G 1G 2G 3G32G20G23G 6G17G 9G10G11G12
                                G28
  23783717.450      396631.253       -3326.118          44.000  
  24879653.596     -175635.921        1484.080          44.000  
  22079804.690      431190.272       -3623.404          44.000  
  25737422.172      540427.486       -4528.693          44.000  
  21128550.131      377436.327       -3198.109          44.000  
  22468426.553      -60410.474         488.258          44.000  
  21615457.240      -89462.331         754.495          44.000  
  20230129.178       40270.685        -359.408          44.000  
  22694582.579     -233577.809        1974.627          44.000  
  22021807.181     -270063.917        2276.054          44.000  
  25163789.663      460197.783       -3894.614          44.000  
  24936515.479     -192052.774        1602.864          44.000  
  22584041.086      455085.381       -3862.953          44.000  
 14 12 20  0  2  1.0000000  0 13G 1G 2G 3G32G20G23G 6G17G 9G10G11G12
                                G28
  23784350.265      399956.760       -3324.182          44.000  
  24879371.792     -177120.010        1485.373          44.000  
  22080494.305      434811.380       -3618.548          44.000  
  25738283.794      544953.307       -4521.848          44.000  
  21129158.341      380632.639       -3194.302          44.000  
  22468333.578      -60897.075         485.615          44.000  
  21615313.363      -90217.821         757.094          44.000  
  20230198.159       40630.503        -359.696          44.000  
  22694208.359     -235547.269        1965.923          44.000  
  22021375.096     -272336.144        2269.302          44.000  
  25164531.507      464093.661       -3896.448          44.000  
  24936210.345     -193659.214        1610.625          44.000  
  22584777.886      458953.375       -3872.091          44.000  
 14 12 20  0  2  2.0000000  0 13G 1G 2G 3G32G20G23G 6G17G 9G10G11G12
                                G28
  23784983.411      403280.451       -3323.267          44.000  
  24879089.360     -178606.090        1486.631          44.000  
  22081182.786      438427.181       -3613.910          44.000  
  25739144.247      549471.870       -4515.708          44.000  
  21129766.132      383824.883       -3191.046          44.000  
  22468241.877      -61380.555         481.129          44.000  
  21615168.892      -90977.066         760.593          44.000  
  20230266.494       40989.970        -359.484          44.000  
  22693834.820     -237508.817        1957.280          44.000  
  22020944.180     -274601.990        2262.629          44.000  
  25165273.577      467991.841       -3899.873          44.000  
  24935903.343     -195274.069        1618.338          44.000  
  22585515.629      462830.220       -3881.499          44.000  
 14 12 20  0  2  3.0000000  0 13G 1G 2G 3G32G20G23G 6G17G 9G10G11G12
                                G28
  23785616.330      406603.421       -3322.938          44.000  
  24878806.580     -180095.000        1491.437          44.000  
  22081870.342      442038.376       -3608.947          44.000  
  25740003.007      553984.030       -4509.436          44.000  
  21130373.033      387013.717       -3187.545          44.000  
  22468150.735      -61860.001         477.259          44.000  
  21615024.143      -91740.541         766.264          44.000  
  20230334.969       41349.191        -359.055          44.000  
  22693463.688     -239461.839        1948.834          44.000  
  22020514.469     -276861.938        2257.574          44.000  
  25166015.892      471893.431       -3903.684          44.000  
  24935594.125     -196897.757        1628.497          44.000  
  22586254.908      466715.676       -3889.328          44.000  
 14 12 20  0  2  4.0000000  0 13G 1G 2G 3G32G20G23G 6G17G 9G10G11G12
                                G28
  23786249.128      409926.792       -3323.919          44.000  
  24878522.525     -181588.832        1497.198          44.000  
  22082556.694      445645.626       -3605.690          44.000  
  25740860.511      558490.655       -4504.897          44.000  
  21130979.690      390199.580       -3184.787          44.000  
  22468060.587      -62334.667         472.053          44.000  
  21614877.893      -92509.659         771.969          44.000  
  20230403.356       41707.743        -357.914          44.000  
  22693093.971     -241406.160        1941.481          44.000  
  22020085.420     -279117.557        2255.129          44.000  
  25166759.149      475799.553       -3907.914          44.000  
  24935283.599     -198531.423        1637.893          44.000  
  22586996.368      470608.496       -3894.540          44.000  
 14 12 20  0  2  5.0000000  0 13G 1G 2G 3G32G20G23G 6G17G 9G10G11G12
                                G28
  23786882.570      413252.819       -3327.938          44.000  
  24878237.266     -183086.776        1499.128          44.000  
  22083243.691      449253.337       -3609.948          44.000  
  25741718.259      562997.401       -4508.718          44.000  
  21131585.946      393386.091       -3188.120          44.000  
  22467971.050      -62805.408         468.607          44.000  
  21614730.822      -93282.093         772.253          44.000  
  20230472.145       42066.401        -359.690          44.000  
  22692724.986     -243346.218        1939.025          44.000  
  22019656.616     -281373.058        2255.854          44.000  
  25167503.331      479709.787       -3912.054          44.000  
  24934972.496     -200169.318        1637.800          44.000  
  22587737.566      474502.928       -3893.604          44.000  
 14 12 20  0  2  6.0000000  0 13G 1G 2G 3G32G20G23G 6G17G 9G10G11G12
                                G28
  23787516.397      416582.179       -3330.408          44.000  
  24877951.973     -184587.702        1503.028          44.000  
  22083930.968      452863.690       -3610.613          44.000  
  25742577.438      567507.027       -4510.076          44.000  
  21132193.458      396575.007       -3189.092          44.000  
  22467882.281      -63273.209         467.468          44.000  
  21614584.450      -94056.043         775.820          44.000  
  20230541.038       42425.751        -358.823          44.000  
  22692356.507     -245284.814        1938.648          44.000  
  22019227.009     -283630.417        2259.098          44.000  
  25168248.159      483623.214       -3914.179          44.000  
  24934661.097     -201807.805        1639.171          44.000  
  22588478.118      478395.957       -3891.116          44.000  
 14 12 20  0  2  7.0000000  0 13G 1G 2G 3G32G20G23G 6G17G 9G10G11G12
                                G28
  23788150.660      419914.367       -3334.544          44.000  
  24877666.103     -186091.958        1505.208          44.000  
  22084618.507      456476.315       -3614.580          44.000  
  25743436.721      572019.204       -4514.778          44.000  
  21132800.324      399765.914       -3192.796          44.000  
  22467794.314      -63738.667         463.288          44.000  
  21614437.257      -94831.824         775.841          44.000  
  20230609.670       42785.278        -360.522          44.000  
  22691988.238     -247222.661        1936.927          44.000  
  22018797.402     -285890.225        2260.069          44.000  
  25168993.161      487539.293       -3918.213          44.000  
  24934349.907     -203447.073        1639.147          44.000  
  22589219.002      482286.902       -3890.934          44.000  
 14 12 20  0  2  8.0000000  0 13G 1G 2G 3G32G20G23G 6G17G 9G10G11G12
                                G28
  23788785.377      423250.293       -3337.030          44.000  
  24877379.780     -187598.513        1508.268          44.000  
  22085306.080      460092.216       -3616.490          44.000  
  25744296.895      576534.968       -4517.088          44.000  
  21133408.516      402959.812       -3194.335          44.000  
  22467706.243      -64201.012         461.596          44.000  
  21614290.396      -95608.385         777.694          44.000  
  20230678.895       43145.968        -360.734          44.000  
  22691620.108     -249159.089        1936.468          44.000  
  22018367.516     -288151.664        2262.894          44.000  
  25169738.931      491458.751       -3920.522          44.000  
  24934038.700     -205085.961        1638.968          44.000  
  22589960.200      486176.506       -3888.321          44.000  
 14 12 20  0  2  9.0000000  0 13G 1G 2G 3G32G20G23G 6G17G 9G10G11G12
                                G28
  23789421.071      426589.480       -3340.477          44.000  
  24877092.829     -189107.590        1510.619          44.000  
  22085995.381      463711.074       -3620.025          44.000  
  25745156.667      581054.007       -4520.284          44.000  
  21134017.424      406156.356       -3197.369          44.000  
  22467618.957      -64660.757         458.927          44.000  
  21614142.244      -96385.983         778.365          44.000  
  20230748.085       43507.401        -361.325          44.000  
  22691252.170     -251094.719        1935.390          44.000  
  22017937.508     -290415.211        2265.620          44.000  
  25170485.626      495381.063       -3923.388          44.000  
  24933727.214     -206724.597        1638.305          44.000  
  22590700.194      490064.206       -3886.610          44.000  
 14 12 20  0  2 10.0000000  0 13G 1G 2G 3G32G20G23G 6G17G 9G10G11G12
                                G28
  23790057.271      429931.605       -3343.757          44.000  
  24876805.232     -190619.323        1512.699          44.000  
  22086685.049      467332.650       -3623.418          44.000  
  25746017.818      585576.147       -4524.085          44.000  
  21134626.541      409355.289       -3199.883          44.000  
  22467532.142      -65118.369         456.396          44.000  
  21613994.632      -97164.702         778.438          44.000  
  20230817.171       43869.344        -362.671          44.000  
  22690884.058     -253030.034        1934.880          44.000  
  22017507.046     -292681.208        2266.634          44.000  
  25171232.809      499305.771       -3926.112          44.000  
  24933415.675     -208362.977        1637.957          44.000  
  22591439.490      493949.584       -3884.965          44.000  
 14 12 20  0  2 11.0000000  0 13G 1G 2G 3G32G20G23G 6G17G 9G10G11G12
                                G28
  23790693.524      433276.749       -3346.288          44.000  
  24876517.984     -192133.302        1515.615          44.000  
  22087374.420      470957.201       -3625.645          44.000  
  25746878.637      590101.601       -4526.408          44.000  
  21135235.257      412556.864       -3202.236          44.000  
  22467445.886      -65573.784         454.751          44.000  
  21613846.340      -97944.163         780.234          44.000  
  20230885.680       44232.023        -362.726          44.000  
  22690516.067     -254965.093        1935.642          44.000  
  22017075.659     -294949.499        2270.090          44.000  
  25171981.284      503232.873       -3927.545          44.000  
  24933104.066     -210000.661        1637.411          44.000  
  22592178.367      497832.701       -3881.123          44.000  
 14 12 20  0  2 12.0000000  0 13G 1G 2G 3G32G20G23G 6G17G 9G10G11G12
                                G28
  23791330.683      436624.448       -3349.771          44.000  
  24876229.497     -193649.695        1517.489          44.000  
  22088065.256      474584.380       -3628.269          44.000  
  25747740.643      594630.050       -4530.622          44.000  
  21135845.160      415760.693       -3205.623          44.000  
  22467359.821      -66027.543         452.783          44.000  
  21613698.310      -98724.557         780.448          44.000  
  20230955.813       44595.090        -362.994          44.000  
  22690148.269     -256900.493        1935.076          44.000  
  22016643.592     -297220.460        2272.155          44.000  
  25172729.026      507161.838       -3929.957          44.000  
  24932792.859     -211637.729        1636.514          44.000  
  22592916.895      501713.067       -3879.436          44.000  
 14 12 20  0  2 13.0000000  0 13G 1G 2G 3G32G20G23G 6G17G 9G10G11G12
                                G28
  23791968.663      439975.032       -3351.567          44.000  
  24875941.289     -195167.856        1519.720          44.000  
  22088755.988      478214.641       -3630.865          44.000  
  25748603.312      599161.995       -4532.932          44.000  
  21136456.040      418967.275       -3207.375          44.000  
  22467273.809      -66479.404         451.332          44.000  
  21613550.210      -99505.233         781.451          44.000  
  20231025.038       44959.020        -364.311          44.000  
  22689780.035     -258835.988        1936.164          44.000  
  22016211.472     -299493.653        2275.114          44.000  
  25173476.732      511092.859       -3931.575          44.000  
  24932481.565     -213273.454        1636.295          44.000  
  22593654.952      505591.039       -3875.897          44.000  
 14 12 20  0  2 14.0000000  0 13G 1G 2G 3G32G20G23G 6G17G 9G10G11G12
                                G28
  23792607.045      443328.229       -3353.662          44.000  
  24875651.842     -196687.658        1520.777          44.000  
  22089447.558      481847.831       -3634.906          44.000  
  25749467.063      603697.254       -4536.717          44.000  
  21137067.984      422176.417       -3210.869          44.000  
  22467188.006      -66929.670         449.469          44.000  
  21613402.093     -100286.157         780.783          44.000  
  20231095.310       45323.680        -365.388          44.000  
  22689411.661     -260771.950        1936.030          44.000  
  22015778.270     -301769.201        2276.650          44.000  
  25174226.464      515025.625       -3933.283          44.000  
  24932171.405     -214907.740        1633.321          44.000  
  22594393.166      509466.412       -3873.893          44.000  
 14 12 20  0  2 15.0000000  0 13G 1G 2G 3G32G20G23G 6G17G 9G10G11G12
                                G28
  23793245.967      446683.824       -3356.447          44.000  
  24875362.483     -198208.918        1522.561          44.000  
  22090139.354      485483.940       -3636.922          44.000  
  25750331.285      608235.806       -4539.748          44.000  
  21137679.370      425388.120       -3211.686          44.000  
  22467103.268      -67378.548         449.074          44.000  
  21613253.783     -101067.143         781.548          44.000  
  20231165.111       45689.111        -365.205          44.000  
  22689043.897     -262708.603        1938.300          44.000  
  22015345.522     -304047.085        2279.581          44.000  
  25174975.322      518959.844       -3934.344          44.000  
  24931860.704     -216540.321        1632.878          44.000  
  22595130.211      513339.129       -3870.981          44.000  
 14 12 20  0  2 16.0000000  0 13G 1G 2G 3G32G20G23G 6G17G 9G10G11G12
                                G28
  23793885.517      450041.575       -3359.319          44.000  
  24875073.891     -199731.453        1523.092          44.000  
  22090832.390      489122.789       -3640.626          44.000  
  25751195.629      612777.508       -4543.478          44.000  
  21138291.366      428602.198       -3215.010          44.000  
  22467018.931      -67826.342         447.240          44.000  
  21613105.544     -101848.046         780.572          44.000  
  20231234.789       46055.203        -366.644          44.000  
  22688675.488     -264646.270        1938.007          44.000  
  22014911.082     -306327.352        2281.406          44.000  
  25175724.216      522895.206       -3935.881          44.000  
  24931550.857     -218171.063        1630.006          44.000  
  22595867.256      517209.020       -3868.957          44.000  
 14 12 20  0  2 17.0000000  0 13G 1G 2G 3G32G20G23G 6G17G 9G10G11G12
                                G28
  23794524.300      453401.329       -3360.254          44.000  
  24874783.851     -201255.000        1523.413          44.000  
  22091526.472      492764.359       -3643.129          44.000  
  25752060.130      617322.271       -4546.385          44.000  
  21138903.520      431818.606       -3217.819          44.000  
  22466934.647      -68273.274         445.696          44.000  
  21612956.816     -102628.720         780.058          44.000  
  20231304.939       46421.961        -368.017          44.000  
  22688306.381     -266585.146        1938.992          44.000  
  22014476.798     -308609.941        2283.629          44.000  
  25176473.633      526831.440       -3936.449          44.000  
  24931242.111     -219799.730        1627.687          44.000  
  22596603.445      521076.091       -3865.956          44.000  
 14 12 20  0  2 18.0000000  0 13G 1G 2G 3G32G20G23G 6G17G 9G10G11G12
                                G28
  23795164.618      456763.047       -3362.751          44.000  
  24874494.003     -202779.086        1524.930          44.000  
  22092220.537      496408.773       -3646.363          44.000  
  25752926.132      621870.254       -4549.691          44.000  
  21139516.145      435037.538       -3219.958          44.000  
  22466850.135      -68719.299         445.439          44.000  
  21612809.030     -103408.720         779.066          44.000  
  20231375.002       46789.673        -368.801          44.000  
  22687937.449     -268525.213        1940.577          44.000  
  22014042.375     -310894.552        2285.463          44.000  
  25177222.928      530768.522       -3937.582          44.000  
  24930932.526     -221425.854        1624.920          44.000  
  22597339.112      524940.529       -3863.435          44.000  
 14 12 20  0  2 19.0000000  0 13G 1G 2G 3G32G20G23G 6G17G 9G10G11G12
                                G28
  23795804.553      460126.587       -3364.056          44.000  
  24874204.050     -204303.442        1524.792          44.000  
  22092914.864      500055.985       -3648.141          44.000  
  25753792.798      626421.352       -4552.153          44.000  
  21140129.171      438258.916       -3221.681          44.000  
  22466765.624      -69164.637         445.440          44.000  
  21612661.034     -104187.814         779.372          44.000  
  20231445.605       47158.338        -368.268          44.000  
  22687568.446     -270466.591        1942.956          44.000  
  22013607.463     -313181.044        2287.740          44.000  
  25177972.170      534706.240       -3937.040          44.000  
  24930623.256     -223049.194        1622.677          44.000  
  22598074.342      528802.419       -3859.919          44.000  
 14 12 20  0  2 20.0000000  0 13G 1G 2G 3G32G20G23G 6G17G 9G10G11G12
                                G28
  23796445.203      463491.719       -3365.391          44.000  
  24873914.202     -205827.739        1523.953          44.000  
  22093610.045      503705.883       -3651.197          44.000  
  25754659.428      630975.462       -4555.837          44.000  
  21140743.122      441482.649       -3225.140          44.000  
  22466681.165      -69609.455         444.468          44.000  
  21612512.882     -104965.829         777.266          44.000  
  20231515.965       47527.982        -370.494          44.000  
  22687199.043     -272409.495        1943.304          44.000  
  22013172.167     -315469.296        2289.165          44.000  
  25178721.483      538644.301       -3937.994          44.000  
  24930314.701     -224669.552        1618.559          44.000  
  22598808.786      532661.773       -3858.823          44.000  
 14 12 20  0  2 21.0000000  0 13G 1G 2G 3G32G20G23G 6G17G 9G10G11G12
                                G28
  23797086.550      466858.010       -3367.008          44.000  
  24873624.179     -207351.908        1523.713          44.000  
  22094305.454      507358.177       -3653.654          44.000  
  25755526.389      635532.265       -4558.434          44.000  
  21141357.282      444708.457       -3227.327          44.000  
  22466595.711      -70054.175         444.416          44.000  
  21612365.428     -105742.733         776.039          44.000  
  20231586.987       47898.474        -370.985          44.000  
  22686829.395     -274354.229        1945.258          44.000  
  22012736.610     -317759.361        2291.065          44.000  
  25179471.476      542582.289       -3938.529          44.000  
  24930007.787     -226286.908        1615.767          44.000  
  22599543.545      536518.492       -3855.484          44.000  
 14 12 20  0  2 22.0000000  0 13G 1G 2G 3G32G20G23G 6G17G 9G10G11G12
                                G28
  23797727.636      470224.931       -3366.322          44.000  
  24873334.645     -208876.018        1524.499          44.000  
  22095001.159      511012.419       -3654.582          44.000  
  25756394.381      640091.258       -4559.160          44.000  
  21141972.088      447935.893       -3227.714          44.000  
  22466510.624      -70499.298         445.927          44.000  
  21612217.799     -106518.674         776.096          44.000  
  20231657.538       48269.444        -370.743          44.000  
  22686459.066     -276301.288        1948.592          44.000  
  22012300.616     -320051.435        2293.595          44.000  
  25180221.102      546519.612       -3936.342          44.000  
  24929701.466     -227901.438        1613.210          44.000  
  22600277.362      540372.297       -3851.934          44.000  
 14 12 20  0  2 23.0000000  0 13G 1G 2G 3G32G20G23G 6G17G 9G10G11G12
                                G28
  23798368.618      473592.543       -3368.402          44.000  
  24873044.710     -210399.464        1523.205          44.000  
  22095697.004      514668.745       -3657.184          44.000  
  25757262.581      644652.558       -4562.609          44.000  
  21142587.034      451165.171       -3230.711          44.000  
  22466426.566      -70944.726         445.391          44.000  
  21612070.537     -107293.190         774.271          44.000  
  20231728.753       48641.212        -372.758          44.000  
  22686088.720     -278250.466        1950.089          44.000  
  22011864.657     -322345.050        2294.131          44.000  
  25180970.432      550456.317       -3936.607          44.000  
  24929394.761     -229512.678        1609.177          44.000  
  22601010.620      544223.610       -3850.439          44.000  
 14 12 20  0  2 24.0000000  0 13G 1G 2G 3G32G20G23G 6G17G 9G10G11G12
                                G28
  23799010.419      476960.569       -3367.894          44.000  
  24872755.472     -211922.038        1522.301          44.000  
  22096393.791      518326.999       -3658.758          44.000  
  25758131.044      649215.966       -4564.180          44.000  
  21143202.311      454396.102       -3231.313          44.000  
  22466342.299      -71390.710         446.398          44.000  
  21611924.094     -108066.107         772.069          44.000  
  20231800.368       49013.782        -372.841          44.000  
  22685718.078     -280201.941        1952.922          44.000  
  22011428.193     -324640.036        2295.897          44.000  
  25181719.779      554392.122       -3935.053          44.000  
  24929088.789     -231120.493        1606.200          44.000  
  22601743.459      548072.515       -3847.690          44.000  
 14 12 20  0  2 25.0000000  0 13G 1G 2G 3G32G20G23G 6G17G 9G10G11G12
                                G28
  23799651.087      480328.782       -3367.611          44.000  
  24872466.287     -213443.431        1521.245          44.000  
  22097091.102      521987.023       -3660.296          44.000  
  25759000.291      653781.319       -4566.394          44.000  
  21143817.466      457628.586       -3232.659          44.000  
  22466258.102      -71837.386         447.514          44.000  
  21611777.774     -108837.258         770.513          44.000  
  20231871.443       49387.191        -373.636          44.000  
  22685346.318     -282155.744        1955.503          44.000  
  22010991.763     -326936.198        2297.275          44.000  
  25182468.865      558326.809       -3933.663          44.000  
  24928784.003     -232724.755        1603.025          44.000  
  22602475.339      551919.165       -3845.107          44.000  
 14 12 20  0  2 26.0000000  0 13G 1G 2G 3G32G20G23G 6G17G 9G10G11G12
                                G28
  23800292.330      483696.628       -3367.535          44.000  
  24872178.062     -214963.692        1519.315          44.000  
  22097787.854      525648.364       -3662.134          44.000  
  25759869.853      658348.072       -4567.374          44.000  
  21144432.447      460862.157       -3234.252          44.000  
  22466173.119      -72285.241         448.782          44.000  
  21611631.855     -109606.791         768.705          44.000  
  20231942.169       49761.112        -374.151          44.000  
  22684974.506     -284112.288        1957.927          44.000  
  22010554.914     -329233.649        2298.226          44.000  
  25183217.636      562259.846       -3932.362          44.000  
  24928479.724     -234325.667        1598.991          44.000  
  22603207.306      555763.389       -3842.859          44.000  
 14 12 20  0  2 27.0000000  0 13G 1G 2G 3G32G20G23G 6G17G 9G10G11G12
                                G28
  23800933.154      487064.239       -3367.278          44.000  
  24871889.732     -216482.198        1518.098          44.000  
  22098485.060      529311.187       -3663.404          44.000  
  25760739.694      662916.363       -4568.976          44.000  
  21145049.207      464097.060       -3235.135          44.000  
  22466087.857      -72734.091         449.149          44.000  
  21611485.518     -110374.204         766.467          44.000  
  20232013.104       50135.937        -375.777          44.000  
  22684602.276     -286071.257        1960.973          44.000  
  22010118.275     -331531.822        2298.799          44.000  
  25183966.180      566191.354       -3930.365          44.000  
  24928175.950     -235922.778        1595.031          44.000  
  22603939.011      559605.733       -3841.183          44.000  
 14 12 20  0  2 28.0000000  0 13G 1G 2G 3G32G20G23G 6G17G 9G10G11G12
                                G28
  23801574.397      490431.518       -3366.489          44.000  
  24871600.495     -217998.600        1515.666          44.000  
  22099182.615      532975.467       -3664.506          44.000  
  25761609.814      667486.124       -4569.730          44.000  
  21145665.113      467333.249       -3236.615          44.000  
  22466003.014      -73183.927         450.606          44.000  
  21611340.629     -111139.207         764.065          44.000  
  20232085.540       50511.818        -375.980          44.000  
  22684228.736     -288032.553        1963.012          44.000  
  22009680.710     -333830.350        2298.903          44.000  
  25184714.411      570121.281       -3928.606          44.000  
  24927872.770     -237515.873        1591.332          44.000  
  22604670.088      563446.512       -3839.648          44.000  
 14 12 20  0  2 29.0000000  0 13G 1G 2G 3G32G20G23G 6G17G 9G10G11G12
                                G28
  23802215.326      493798.128       -3366.870          44.000  
  24871312.968     -219512.747        1512.754          44.000  
  22099880.537      536640.903       -3666.150          44.000  
  25762479.970      672056.987       -4571.225          44.000  
  21146280.652      470570.492       -3238.114          44.000  
  22465917.246      -73635.002         451.233          44.000  
  21611195.199     -111901.796         761.074          44.000  
  20232157.801       50888.632        -376.873          44.000  
  22683854.290     -289996.289        1964.890          44.000  
  22009243.129     -336129.103        2298.628          44.000  
  25185461.943      574049.324       -3927.413          44.000  
  24927569.992     -239105.029        1587.166          44.000  
  22605399.978      567285.819       -3838.862          44.000  
 14 12 20  0  2 30.0000000  0 13G 1G 2G 3G32G20G23G 6G17G 9G10G11G12
                                G28
  23802856.238      497163.690       -3365.226          44.000  
  24871025.615     -221024.581        1510.941          44.000  
  22100578.040      540307.158       -3666.508          44.000  
  25763349.741      676628.583       -4572.008          44.000  
  21146897.325      473808.462       -3238.322          44.000  
  22465831.426      -74087.606         453.293          44.000  
  21611050.798     -112662.016         759.088          44.000  
  20232229.644       51266.239        -378.299          44.000  
  22683480.105     -291962.617        1967.598          44.000  
  22008806.140     -338428.042        2298.741          44.000  
  25186209.301      577975.153       -3924.335          44.000  
  24927268.888     -240690.372        1583.661          44.000  
  22606130.566      571123.713       -3837.306          44.000  
 14 12 20  0  2 31.0000000  0 13G 1G 2G 3G32G20G23G 6G17G 9G10G11G12
                                G28
  23803496.696      500527.797       -3362.742          44.000  
  24870738.803     -222534.066        1508.278          44.000  
  22101275.978      543973.838       -3666.535          44.000  
  25764219.477      681200.448       -4572.081          44.000  
  21147513.580      477046.808       -3238.496          44.000  
  22465744.734      -74542.059         455.127          44.000  
  21610906.677     -113419.951         756.807          44.000  
  20232301.922       51644.469        -378.638          44.000  
  22683106.094     -293931.728        1970.618          44.000  
  22008368.698     -340727.088        2299.245          44.000  
  25186956.537      581898.378       -3921.908          44.000  
  24926968.011     -242272.075        1580.213          44.000  
  22606860.666      574960.229       -3835.441          44.000  
 14 12 20  0  2 32.0000000  0 13G 1G 2G 3G32G20G23G 6G17G 9G10G11G12
                                G28
  23804136.822      503890.187       -3361.914          44.000  
  24870452.358     -224041.110        1505.372          44.000  
  22101974.109      547640.701       -3667.385          44.000  
  25765089.405      685772.300       -4572.057          44.000  
  21148130.480      480285.329       -3238.950          44.000  
  22465658.372      -74998.483         457.547          44.000  
  21610763.358     -114175.585         754.117          44.000  
  20232374.219       52023.267        -379.186          44.000  
  22682731.455     -295903.622        1972.788          44.000  
  22007931.413     -343026.060        2298.635          44.000  
  25187702.848      585818.827       -3919.308          44.000  
  24926668.688     -243850.221        1576.064          44.000  
  22607591.097      578795.533       -3834.744          44.000  
 14 12 20  0  2 33.0000000  0 13G 1G 2G 3G32G20G23G 6G17G 9G10G11G12
                                G28
  23804776.512      507251.100       -3359.456          44.000  
  24870166.855     -225545.069        1502.993          44.000  
  22102672.153      551308.001       -3666.799          44.000  
  25765960.171      690344.332       -4571.237          44.000  
  21148747.345      483524.316       -3238.099          44.000  
  22465571.034      -75456.541         459.854          44.000  
  21610619.970     -114928.384         751.571          44.000  
  20232446.637       52403.061        -379.577          44.000  
  22682356.485     -297877.787        1976.093          44.000  
  22007493.797     -345324.289        2298.365          44.000  
  25188448.723      589736.802       -3915.932          44.000  
  24926369.644     -245424.394        1572.541          44.000  
  22608320.778      582630.330       -3833.696          44.000  
 14 12 20  0  2 34.0000000  0 13G 1G 2G 3G32G20G23G 6G17G 9G10G11G12
                                G28
  23805415.679      510609.828       -3358.316          44.000  
  24869880.793     -227046.329        1499.329          44.000  
  22103370.545      554975.007       -3667.679          44.000  
  25766830.117      694915.753       -4571.571          44.000  
  21149363.966      486763.047       -3239.422          44.000  
  22465483.556      -75916.841         461.316          44.000  
  21610477.750     -115678.850         748.592          44.000  
  20232519.265       52783.352        -380.793          44.000  
  22681980.381     -299854.691        1977.602          44.000  
  22007056.773     -347622.054        2296.994          44.000  
  25189193.725      593651.649       -3913.730          44.000  
  24926071.507     -246995.178        1568.841          44.000  
  22609051.227      586464.305       -3834.113          44.000  
 14 12 20  0  2 35.0000000  0 13G 1G 2G 3G32G20G23G 6G17G 9G10G11G12
                                G28
  23806054.409      513966.458       -3355.228          44.000  
  24869595.971     -228544.479        1497.274          44.000  
  22104068.450      558641.773       -3666.076          44.000  
  25767700.761      699486.580       -4569.775          44.000  
  21149980.534      490001.646       -3238.530          44.000  
  22465395.293      -76379.164         463.877          44.000  
  21610335.758     -116426.659         747.366          44.000  
  20232592.364       53164.367        -381.203          44.000  
  22681603.945     -301833.975        1981.016          44.000  
  22006619.733     -349918.874        2296.741          44.000  
  25189938.326      597563.549       -3909.827          44.000  
  24925772.637     -248562.411        1566.199          44.000  
  22609780.820      590297.988       -3832.972          44.000  
 14 12 20  0  2 36.0000000  0 13G 1G 2G 3G32G20G23G 6G17G 9G10G11G12
                                G28
  23806693.523      517320.905       -3353.480          44.000  
  24869312.492     -230039.332        1494.195          44.000  
  22104765.970      562308.213       -3665.940          44.000  
  25768570.584      704056.646       -4569.006          44.000  
  21150596.562      493240.055       -3237.891          44.000  
  22465307.745      -76843.463         465.604          44.000  
  21610194.254     -117171.738         743.977          44.000  
  20232664.765       53546.216        -381.684          44.000  
  22681226.915     -303815.463        1982.753          44.000  
  22006183.338     -352214.432        2295.391          44.000  
  25190682.665      601472.486       -3907.106          44.000  
  24925474.796     -250126.091        1562.618          44.000  
  22610510.850      594131.715       -3833.746          44.000  
 14 12 20  0  2 37.0000000  0 13G 1G 2G 3G32G20G23G 6G17G 9G10G11G12
                                G28
  23807332.446      520672.719       -3351.040          44.000  
  24869028.507     -231531.132        1489.947          44.000  
  22105463.786      565973.810       -3665.794          44.000  
  25769440.408      708625.411       -4568.366          44.000  
  21151213.113      496477.782       -3237.057          44.000  
  22465219.046      -77310.097         467.184          44.000  
  21610053.693     -117914.375         741.232          44.000  
  20232737.916       53928.553        -383.353          44.000  
  22680849.729     -305799.317        1984.182          44.000  
  22005747.170     -354508.806        2293.792          44.000  
  25191426.759      605378.101       -3904.159          44.000  
  24925177.881     -251686.670        1558.962          44.000  
  22611240.444      597965.424       -3834.840          44.000  
 14 12 20  0  2 38.0000000  0 13G 1G 2G 3G32G20G23G 6G17G 9G10G11G12
                                G28
  23807969.955      524021.982       -3348.005          44.000  
  24868745.447     -233019.531        1486.538          44.000  
  22106161.655      569638.629       -3664.625          44.000  
  25770309.812      713192.867       -4566.395          44.000  
  21151829.071      499714.918       -3236.427          44.000  
  22465129.666      -77778.828         469.944          44.000  
  21609912.957     -118654.371         738.601          44.000  
  20232811.225       54311.634        -383.747          44.000  
  22680471.862     -307785.203        1986.576          44.000  
  22005311.821     -356801.572        2292.011          44.000  
  25192169.493      609280.588       -3900.543          44.000  
  24924881.367     -253244.030        1556.114          44.000  
  22611970.735      601799.598       -3834.585          44.000  
 14 12 20  0  2 39.0000000  0 13G 1G 2G 3G32G20G23G 6G17G 9G10G11G12
                                G28
  23808607.585      527368.523       -3345.566          44.000  
  24868462.806     -234504.583        1482.861          44.000  
  22106859.385      573302.425       -3663.452          44.000  
  25771178.729      717758.702       -4565.119          44.000  
  21152445.151      502951.275       -3236.503          44.000  
  22465041.106      -78249.717         471.775          44.000  
  21609772.639     -119391.807         735.711          44.000  
  20232884.620       54695.363        -384.329          44.000  
  22680094.309     -309772.984        1988.444          44.000  
  22004876.421     -359092.563        2289.435          44.000  
  25192911.424      613179.843       -3898.438          44.000  
  24924585.865     -254798.397        1552.512          44.000  
  22612700.381      605634.430       -3835.372          44.000  
 14 12 20  0  2 40.0000000  0 13G 1G 2G 3G32G20G23G 6G17G 9G10G11G12
                                G28
  23809243.855      530712.402       -3342.160          44.000  
  24868180.950     -235986.104        1480.402          44.000  
  22107556.416      576965.153       -3661.956          44.000  
  25772047.959      722322.868       -4562.896          44.000  
  21153061.196      506186.838       -3235.524          44.000  
  22464951.621      -78722.614         473.831          44.000  
  21609632.881     -120126.588         733.567          44.000  
  20232957.737       55079.854        -385.393          44.000  
  22679716.354     -311762.397        1989.854          44.000  
  22004440.672     -361381.457        2288.384          44.000  
  25193653.076      617076.014       -3894.930          44.000  
  24924291.078     -256349.821        1550.327          44.000  
  22613430.760      609470.298       -3836.000          44.000  
 14 12 20  0  2 41.0000000  0 13G 1G 2G 3G32G20G23G 6G17G 9G10G11G12
                                G28
  23809879.602      534053.359       -3339.631          44.000  
  24867899.792     -237464.225        1476.575          44.000  
  22108253.291      580626.531       -3661.207          44.000  
  25772916.090      726885.000       -4560.345          44.000  
  21153677.276      509421.356       -3233.941          44.000  
  22464861.020      -79197.599         475.779          44.000  
  21609493.366     -120858.934         730.927          44.000  
  20233031.150       55464.997        -385.571          44.000  
  22679337.929     -313753.382        1991.757          44.000  
  22004005.551     -363668.192        2285.215          44.000  
  25194394.640      620969.008       -3891.940          44.000  
  24923997.374     -257898.616        1547.834          44.000  
  22614161.156      613307.312       -3837.671          44.000  
 14 12 20  0  2 42.0000000  0 13G 1G 2G 3G32G20G23G 6G17G 9G10G11G12
                                G28
  23810514.964      537391.235       -3337.082          44.000  
  24867619.612     -238939.107        1472.586          44.000  
  22108949.694      584286.283       -3659.447          44.000  
  25773783.767      731444.783       -4559.366          44.000  
  21154292.745      512654.573       -3232.726          44.000  
  22464770.191      -79674.773         477.616          44.000  
  21609354.602     -121589.020         728.686          44.000  
  20233105.348       55850.621        -386.641          44.000  
  22678958.858     -315745.883        1992.642          44.000  
  22003570.761     -365952.719        2282.702          44.000  
  25195135.192      624858.704       -3888.574          44.000  
  24923703.564     -259445.117        1545.147          44.000  
  22614892.006      617145.593       -3839.885          44.000  
 14 12 20  0  2 43.0000000  0 13G 1G 2G 3G32G20G23G 6G17G 9G10G11G12
                                G28
  23811149.192      540726.270       -3333.615          44.000  
  24867339.466     -240410.468        1470.120          44.000  
  22109646.255      587944.544       -3657.476          44.000  
  25774651.427      736002.313       -4556.337          44.000  
  21154907.708      515886.669       -3231.406          44.000  
  22464680.270      -80153.723         479.500          44.000  
  21609216.431     -122316.661         726.340          44.000  
  20233179.075       56237.028        -386.482          44.000  
  22678579.595     -317739.398        1994.310          44.000  
  22003136.565     -368234.588        2280.506          44.000  
  25195874.733      628745.484       -3885.622          44.000  
  24923410.017     -260989.259        1543.529          44.000  
  22615623.240      620985.639       -3841.291          44.000  
 14 12 20  0  2 44.0000000  0 13G 1G 2G 3G32G20G23G 6G17G 9G10G11G12
                                G28
  23811783.961      544058.081       -3331.076          44.000  
  24867060.088     -241878.818        1466.092          44.000  
  22110341.873      591600.829       -3655.969          44.000  
  25775518.423      740557.078       -4554.112          44.000  
  21155522.863      519117.186       -3230.672          44.000  
  22464588.535      -80634.785         481.312          44.000  
  21609078.714     -123042.354         723.861          44.000  
  20233253.064       56623.793        -387.686          44.000  
  22678200.262     -319734.123        1994.342          44.000  
  22002703.537     -370514.035        2277.491          44.000  
  25196614.447      632629.046       -3883.020          44.000  
  24923116.469     -262531.641        1540.808          44.000  
  22616354.614      624827.328       -3843.400          44.000  
 14 12 20  0  2 45.0000000  0 13G 1G 2G 3G32G20G23G 6G17G 9G10G11G12
                                G28
  23812417.422      547386.306       -3326.990          44.000  
  24866781.774     -243344.486        1464.088          44.000  
  22111037.683      595254.700       -3653.391          44.000  
  25776384.268      745108.594       -4550.608          44.000  
  21156137.355      522345.693       -3227.945          44.000  
  22464496.205      -81118.153         483.689          44.000  
  21608940.561     -123766.499         722.849          44.000  
  20233326.931       57010.612        -387.851          44.000  
  22677820.842     -321730.116        1996.142          44.000  
  22002270.650     -372791.218        2275.442          44.000  
  25197353.063      636509.160       -3879.391          44.000  
  24922823.986     -264072.806        1540.322          44.000  
  22617086.319      628670.527       -3843.922          44.000  
 14 12 20  0  2 46.0000000  0 13G 1G 2G 3G32G20G23G 6G17G 9G10G11G12
                                G28
  23813050.044      550711.908       -3325.223          44.000  
  24866503.810     -244806.661        1460.340          44.000  
  22111732.812      598906.982       -3652.347          44.000  
  25777250.410      749657.658       -4548.195          44.000  
  21156752.021      525573.044       -3227.351          44.000  
  22464404.662      -81602.811         484.267          44.000  
  21608803.664     -124488.332         720.046          44.000  
  20233400.763       57398.393        -388.952          44.000  
  22677441.160     -323726.256        1995.183          44.000  
  22001838.286     -375065.124        2271.132          44.000  
  25198090.910      640386.866       -3877.329          44.000  
  24922530.648     -265612.087        1537.718          44.000  
  22617817.675      632516.381       -3847.201          44.000  
 14 12 20  0  2 47.0000000  0 13G 1G 2G 3G32G20G23G 6G17G 9G10G11G12
                                G28
  23813682.772      554034.755       -3321.854          44.000  
  24866225.880     -246265.675        1457.689          44.000  
  22112427.331      602557.408       -3649.281          44.000  
  25778115.487      754203.963       -4544.728          44.000  
  21157365.676      528799.004       -3225.358          44.000  
  22464312.175      -82088.789         486.386          44.000  
  21608667.081     -125208.163         718.966          44.000  
  20233474.717       57786.927        -388.856          44.000  
  22677062.072     -325722.489        1996.623          44.000  
  22001406.428     -377335.816        2269.193          44.000  
  25198828.793      644262.149       -3873.818          44.000  
  24922238.217     -267149.906        1537.349          44.000  
  22618549.904      636364.862       -3849.360          44.000  
 14 12 20  0  2 48.0000000  0 13G 1G 2G 3G32G20G23G 6G17G 9G10G11G12
                                G28
  23814314.575      557354.359       -3317.891          44.000  
  24865948.648     -247722.187        1455.552          44.000  
  22113121.884      606205.367       -3646.577          44.000  
  25778979.901      758746.879       -4541.438          44.000  
  21157979.627      532023.009       -3222.901          44.000  
  22464219.550      -82576.477         488.148          44.000  
  21608530.882     -125926.692         717.825          44.000  
  20233548.723       58175.666        -388.676          44.000  
  22676682.913     -327719.120        1996.738          44.000  
  22000975.669     -379603.732        2266.474          44.000  
  25199565.907      648134.617       -3871.330          44.000  
  24921945.839     -268687.073        1536.909          44.000  
  22619282.743      640215.634       -3851.821          44.000  
 14 12 20  0  2 49.0000000  0 13G 1G 2G 3G32G20G23G 6G17G 9G10G11G12
                                G28
  23814946.272      560671.059       -3315.358          44.000  
  24865672.743     -249176.085        1452.441          44.000  
  22113815.530      609851.083       -3644.942          44.000  
  25779843.774      763286.628       -4538.449          44.000  
  21158593.752      535245.254       -3221.488          44.000  
  22464126.540      -83065.460         489.094          44.000  
  21608394.282     -126643.774         716.456          44.000  
  20233623.131       58564.883        -389.863          44.000  
  22676302.691     -329715.631        1995.601          44.000  
  22000545.033     -381868.537        2263.017          44.000  
  25200302.464      652004.727       -3868.725          44.000  
  24921653.059     -270223.550        1536.083          44.000  
  22620016.682      644069.142       -3855.367          44.000  
 14 12 20  0  2 50.0000000  0 13G 1G 2G 3G32G20G23G 6G17G 9G10G11G12
                                G28
  23815576.993      563984.530       -3313.169          44.000  
  24865397.082     -250627.959        1450.132          44.000  
  22114509.194      613494.111       -3642.598          44.000  
  25780707.385      767822.719       -4534.767          44.000  
  21159206.988      538465.315       -3219.498          44.000  
  22464033.827      -83555.973         489.965          44.000  
  21608258.310     -127360.017         714.432          44.000  
  20233697.224       58954.122        -389.989          44.000  
  22675922.817     -331712.205        1995.338          44.000  
  22000114.833     -384130.611        2259.710          44.000  
  25201038.304      655872.217       -3867.934          44.000  
  24921361.169     -271760.046        1535.700          44.000  
  22620750.690      647925.083       -3857.769          44.000  
 14 12 20  0  2 51.0000000  0 13G 1G 2G 3G32G20G23G 6G17G 9G10G11G12
                                G28
  23816207.312      567295.532       -3309.167          44.000  
  24865121.299     -252077.383        1448.192          44.000  
  22115202.421      617135.043       -3639.417          44.000  
  25781570.682      772355.751       -4530.832          44.000  
  21159819.787      541683.804       -3217.153          44.000  
  22463940.486      -84047.219         492.223          44.000  
  21608122.966     -128074.964         714.364          44.000  
  20233771.719       59344.034        -389.688          44.000  
  22675543.432     -333707.979        1995.470          44.000  
  21999685.470     -386389.268        2257.841          44.000  
  25201773.552      659737.971       -3864.004          44.000  
  24921068.878     -273296.158        1536.621          44.000  
  22621485.641      651784.225       -3860.642          44.000  
 14 12 20  0  2 52.0000000  0 13G 1G 2G 3G32G20G23G 6G17G 9G10G11G12
                                G28
  23816837.405      570603.587       -3307.180          44.000  
  24864845.673     -253525.129        1447.198          44.000  
  22115895.422      620773.289       -3637.481          44.000  
  25782432.863      776885.105       -4527.939          44.000  
  21160431.505      544900.140       -3215.566          44.000  
  22463847.075      -84539.592         492.313          44.000  
  21607987.587     -128789.386         714.114          44.000  
  20233846.127       59733.978        -389.930          44.000  
  22675163.593     -335703.319        1994.678          44.000  
  21999256.718     -388645.096        2254.703          44.000  
  25202509.323      663601.585       -3863.000          44.000  
  24920776.971     -274832.760        1537.317          44.000  
  22622220.766      655646.071       -3863.418          44.000  
 14 12 20  0  2 53.0000000  0 13G 1G 2G 3G32G20G23G 6G17G 9G10G11G12
                                G28
  23817466.380      573908.943       -3304.151          44.000  
  24864570.360     -254971.349        1445.676          44.000  
  22116587.148      624408.957       -3634.492          44.000  
  25783294.589      781410.910       -4524.187          44.000  
  21161043.187      548114.432       -3213.102          44.000  
  22463753.315      -85032.828         493.350          44.000  
  21607851.615     -129503.372         714.295          44.000  
  20233920.971       60124.050        -390.246          44.000  
  22674783.946     -337697.875        1993.938          44.000  
  21998827.652     -390897.991        2251.191          44.000  
  25203244.535      667463.367       -3861.145          44.000  
  24920485.151     -276370.013        1537.850          44.000  
  22622956.607      659510.855       -3865.889          44.000  
 14 12 20  0  2 54.0000000  0 13G 1G 2G 3G32G20G23G 6G17G 9G10G11G12
                                G28
  23818094.484      577212.153       -3302.253          44.000  
  24864296.095     -256415.883        1444.243          44.000  
  22117279.207      628042.451       -3632.473          44.000  
  25784155.688      785933.552       -4521.273          44.000  
  21161654.433      551327.097       -3211.950          44.000  
  22463659.834      -85526.324         493.350          44.000  
  21607716.515     -130216.750         712.926          44.000  
  20233995.710       60514.634        -390.621          44.000  
  22674405.503     -339691.057        1992.617          44.000  
  21998399.528     -393147.607        2248.283          44.000  
  25203979.137      671323.992       -3860.664          44.000  
  24920193.139     -277907.797        1537.593          44.000  
  22623692.849      663378.952       -3869.254          44.000  
 14 12 20  0  2 55.0000000  0 13G 1G 2G 3G32G20G23G 6G17G 9G10G11G12
                                G28
  23818722.971      580513.046       -3299.152          44.000  
  24864021.569     -257859.280        1443.604          44.000  
  22117970.776      631673.506       -3629.810          44.000  
  25785016.053      790452.791       -4516.708          44.000  
  21162265.941      554537.856       -3209.715          44.000  
  22463565.899      -86020.182         494.235          44.000  
  21607580.979     -130929.989         714.169          44.000  
  20234070.223       60905.383        -390.094          44.000  
  22674026.920     -341682.969        1991.742          44.000  
  21997971.998     -395394.273        2246.032          44.000  
  25204713.914      675183.335       -3858.542          44.000  
  24919900.289     -279446.618        1540.089          44.000  
  22624429.964      667250.168       -3871.794          44.000  
 14 12 20  0  2 56.0000000  0 13G 1G 2G 3G32G20G23G 6G17G 9G10G11G12
                                G28
  23819351.283      583811.669       -3298.327          44.000  
  24863747.146     -259301.974        1441.845          44.000  
  22118661.421      635302.000       -3627.689          44.000  
  25785875.058      794968.480       -4514.308          44.000  
  21162876.961      557746.601       -3208.315          44.000  
  22463471.808      -86514.377         494.467          44.000  
  21607445.269     -131643.481         713.413          44.000  
  20234145.276       61296.127        -391.441          44.000  
  22673648.704     -343673.557        1989.370          44.000  
  21997545.916     -397638.251        2242.575          44.000  
  25205448.288      679041.508       -3858.234          44.000  
  24919607.265     -280986.933        1540.749          44.000  
  22625166.852      671124.331       -3875.953          44.000  
 14 12 20  0  2 57.0000000  0 13G 1G 2G 3G32G20G23G 6G17G 9G10G11G12
                                G28
  23819979.107      587108.747       -3295.759          44.000  
  24863473.457     -260743.695        1442.063          44.000  
  22119351.891      638928.544       -3625.143          44.000  
  25786734.272      799481.284       -4509.791          44.000  
  21163486.898      560953.903       -3206.179          44.000  
  22463377.751      -87008.199         493.866          44.000  
  21607309.995     -132356.906         714.139          44.000  
  20234219.649       61687.359        -390.935          44.000  
  22673269.860     -345662.101        1987.763          44.000  
  21997119.520     -399879.069        2239.741          44.000  
  25206182.384      682899.277       -3857.078          44.000  
  24919314.049     -282528.448        1542.566          44.000  
  22625905.380      675001.985       -3878.729          44.000  
 14 12 20  0  2 58.0000000  0 13G 1G 2G 3G32G20G23G 6G17G 9G10G11G12
                                G28
  23820606.949      590404.405       -3294.450          44.000  
  24863200.414     -262184.785        1440.827          44.000  
  22120041.768      642553.110       -3623.676          44.000  
  25787592.979      803991.163       -4508.000          44.000  
  21164097.760      564159.791       -3204.946          44.000  
  22463284.113      -87501.464         493.234          44.000  
  21607174.232     -133070.510         714.150          44.000  
  20234294.720       62079.027        -391.782          44.000  
  22672892.290     -347648.484        1985.702          44.000  
  21996694.293     -402116.903        2236.799          44.000  
  25206917.143      686756.832       -3857.176          44.000  
  24919020.048     -284071.421        1544.130          44.000  
  22626643.611      678883.016       -3882.251          44.000  
 14 12 20  0  2 59.0000000  0 13G 1G 2G 3G32G20G23G 6G17G 9G10G11G12
                                G28
  23821233.813      593698.641       -3293.471          44.000  
  24862926.829     -263625.736        1440.947          44.000  
  22120731.558      646175.625       -3621.276          44.000  
  25788450.867      808498.086       -4505.947          44.000  
  21164707.715      567364.117       -3203.929          44.000  
  22463191.121      -87994.214         492.498          44.000  
  21607038.993     -133784.710         714.694          44.000  
  20234369.895       62470.870        -392.173          44.000  
  22672515.138     -349632.768        1982.967          44.000  
  21996269.764     -404352.088        2233.879          44.000  
  25207651.518      690614.215       -3857.636          44.000  
  24918726.326     -285616.321        1545.776          44.000  
  22627383.291      682767.218       -3885.827          44.000  
 14 12 20  0  3  0.0000000  0 13G 1G 2G 3G32G20G23G 6G17G 9G10G11G12
                                G28
  23821860.799      596992.271       -3293.093          44.000  
  24862652.948     -265066.229        1440.218          44.000  
  22121420.335      649796.756       -3620.861          44.000  
  25789308.231      813002.755       -4503.626          44.000  
  21165317.775      570567.563       -3203.463          44.000  
  22463098.286      -88485.669         490.257          44.000  
  21606903.248     -134499.134         714.260          44.000  
  20234444.600       62863.464        -393.355          44.000  
  22672138.371     -351614.200        1979.825          44.000  
  21995844.956     -406584.162        2230.255          44.000  
  25208386.172      694472.269       -3858.834          44.000  
  24918432.813     -287162.724        1547.071          44.000  
  22628122.953      686655.085       -3890.034          44.000  
 14 12 20  0  3  1.0000000  0 13G 1G 2G 3G32G20G23G 6G17G 9G10G11G12
                                G28
  23822488.012      600284.834       -3291.677          44.000  
  24862378.997     -266507.252        1441.850          44.000  
  22122110.177      653415.961       -3617.873          44.000  
  25790165.333      817504.616       -4499.652          44.000  
  21165927.311      573769.549       -3200.682          44.000  
  22463004.613      -88976.282         491.156          44.000  
  21606767.538     -135214.626         717.627          44.000  
  20234519.775       63256.110        -391.852          44.000  
  22671762.231     -353593.306        1978.949          44.000  
  21995420.794     -408813.959        2229.298          44.000  
  25209120.826      698330.565       -3858.066          44.000  
  24918138.289     -288711.507        1550.702          44.000  
  22628863.209      690545.882       -3891.143          44.000  
 14 12 20  0  3  2.0000000  0 13G 1G 2G 3G32G20G23G 6G17G 9G10G11G12
                                G28
  23823115.103      603576.781       -3291.314          44.000  
  24862105.238     -267948.827        1442.147          44.000  
  22122798.885      657033.568       -3616.713          44.000  
  25791021.563      822004.053       -4498.077          44.000  
  21166536.411      576970.415       -3199.854          44.000  
  22462912.075      -89465.663         489.018          44.000  
  21606630.885     -135931.179         717.253          44.000  
  20234595.422       63649.018        -392.872          44.000  
  22671386.249     -355569.779        1975.030          44.000  
  21994997.434     -411041.442        2226.363          44.000  
  25209855.498      702189.581       -3859.157          44.000  
  24917842.856     -290262.640        1552.061          44.000  
  22629605.297      694439.704       -3894.887          44.000  
 14 12 20  0  3  3.0000000  0 13G 1G 2G 3G32G20G23G 6G17G 9G10G11G12
                                G28
  23823741.426      606868.371       -3291.378          44.000  
  24861830.781     -269391.266        1442.815          44.000  
  22123487.104      660649.755       -3615.358          44.000  
  25791877.653      826501.273       -4496.677          44.000  
  21167146.191      580170.300       -3199.498          44.000  
  22462820.060      -89953.589         487.401          44.000  
  21606494.930     -136648.978         717.931          44.000  
  20234670.685       64042.178        -393.348          44.000  
  22671010.476     -357543.450        1972.339          44.000  
  21994574.633     -413266.741        2224.088          44.000  
  25210590.047      706049.542       -3860.820          44.000  
  24917547.738     -291816.235        1554.928          44.000  
  22630347.577      698336.463       -3898.268          44.000  
 14 12 20  0  3  4.0000000  0 13G 1G 2G 3G32G20G23G 6G17G 9G10G11G12
                                G28
  23824367.942      610160.104       -3291.526          44.000  
  24861556.516     -270834.518        1443.782          44.000  
  22124174.817      664264.932       -3614.416          44.000  
  25792732.906      830996.752       -4494.297          44.000  
  21167755.658      583369.576       -3198.674          44.000  
  22462728.463      -90439.620         485.197          44.000  
  21606358.173     -137367.841         720.474          44.000  
  20234746.262       64435.862        -393.578          44.000  
  22670635.558     -359513.971        1969.659          44.000  
  21994151.570     -415489.783        2222.528          44.000  
  25211325.051      709911.007       -3861.880          44.000  
  24917251.922     -293372.143        1557.580          44.000  
  22631090.136      702236.325       -3900.975          44.000  
 14 12 20  0  3  5.0000000  0 13G 1G 2G 3G32G20G23G 6G17G 9G10G11G12
                                G28
  23824994.474      613451.560       -3292.196          44.000  
  24861281.501     -272279.540        1445.751          44.000  
  22124862.932      667878.595       -3613.332          44.000  
  25793588.682      835489.995       -4493.142          44.000  
  21168364.845      586567.744       -3198.519          44.000  
  22462636.536      -90924.245         483.439          44.000  
  21606221.154     -138088.679         721.281          44.000  
  20234820.984       64829.351        -394.546          44.000  
  22670261.041     -361481.950        1966.068          44.000  
  21993728.908     -417711.459        2220.240          44.000  
  25212060.560      713773.507       -3863.393          44.000  
  24916955.303     -294931.199        1559.919          44.000  
  22631832.765      706138.413       -3903.855          44.000  
 14 12 20  0  3  6.0000000  0 13G 1G 2G 3G32G20G23G 6G17G 9G10G11G12
                                G28
  23825621.583      616743.627       -3292.344          44.000  
  24861006.031     -273725.950        1447.152          44.000  
  22125550.296      671491.570       -3612.198          44.000  
  25794444.039      839981.890       -4491.383          44.000  
  21168973.299      589765.583       -3197.741          44.000  
  22462545.271      -91406.659         481.824          44.000  
  21606083.768     -138810.952         722.881          44.000  
  20234895.862       65223.335        -394.046          44.000  
  22669887.956     -363446.657        1963.195          44.000  
  21993306.822     -419931.305        2219.454          44.000  
  25212796.331      717637.907       -3865.183          44.000  
  24916658.405     -296492.796        1562.988          44.000  
  22632576.266      710043.250       -3906.041          44.000  
 14 12 20  0  3  7.0000000  0 13G 1G 2G 3G32G20G23G 6G17G 9G10G11G12
                                G28
  23826248.569      620036.108       -3293.574          44.000  
  24860730.143     -275174.386        1448.744          44.000  
  22126237.834      675103.632       -3612.433          44.000  
  25795298.734      844472.257       -4489.814          44.000  
  21169581.840      592962.836       -3197.380          44.000  
  22462454.041      -91887.116         478.566          44.000  
  21605946.871     -139535.219         724.362          44.000  
  20234971.352       65617.367        -394.605          44.000  
  22669514.381     -365408.471        1959.746          44.000  
  21992884.509     -422149.948        2217.448          44.000  
  25213531.997      721504.023       -3867.760          44.000  
  24916361.089     -298057.438        1565.610          44.000  
  22633320.187      713950.236       -3909.133          44.000  
 14 12 20  0  3  8.0000000  0 13G 1G 2G 3G32G20G23G 6G17G 9G10G11G12
                                G28
  23826875.608      623329.982       -3294.939          44.000  
  24860454.168     -276624.367        1451.044          44.000  
  22126924.815      678715.661       -3612.354          44.000  
  25796153.498      848962.027       -4489.679          44.000  
  21170190.312      596160.369       -3197.971          44.000  
  22462363.213      -92364.726         475.687          44.000  
  21605809.416     -140260.883         726.084          44.000  
  20235046.929       66012.153        -395.344          44.000  
  22669141.819     -367366.642        1956.309          44.000  
  21992462.877     -424366.909        2216.057          44.000  
  25214268.449      725372.777       -3870.147          44.000  
  24916063.754     -299624.476        1568.028          44.000  
  22634064.264      717859.899       -3910.752          44.000  
 14 12 20  0  3  9.0000000  0 13G 1G 2G 3G32G20G23G 6G17G 9G10G11G12
                                G28
  23827502.489      626624.824       -3295.982          44.000  
  24860177.966     -278076.769        1453.229          44.000  
  22127611.987      682327.232       -3612.473          44.000  
  25797007.791      853450.815       -4489.204          44.000  
  21170798.941      599357.716       -3197.823          44.000  
  22462272.542      -92840.033         473.211          44.000  
  21605671.123     -140988.691         727.952          44.000  
  20235121.790       66407.055        -396.080          44.000  
  22668770.217     -369321.817        1952.574          44.000  
  21992040.931     -426583.049        2215.021          44.000  
  25215005.214      729243.702       -3872.740          44.000  
  24915765.146     -301194.535        1570.757          44.000  
  22634809.284      721771.390       -3912.890          44.000  
 14 12 20  0  3 10.0000000  0 13G 1G 2G 3G32G20G23G 6G17G 9G10G11G12
                                G28
  23828129.825      629921.177       -3297.650          44.000  
  24859901.869     -279531.441        1455.424          44.000  
  22128299.874      685938.863       -3611.920          44.000  
  25797861.804      857939.204       -4488.616          44.000  
  21171407.604      602555.341       -3198.223          44.000  
  22462183.301      -93312.541         470.903          44.000  
  21605532.237     -141718.436         730.940          44.000  
  20235197.228       66802.397        -396.039          44.000  
  22668398.771     -371273.662        1949.958          44.000  
  21991619.909     -428798.251        2214.689          44.000  
  25215742.643      733117.314       -3874.884          44.000  
  24915466.102     -302767.343        1574.308          44.000  
  22635554.966      725684.811       -3914.641          44.000  
 14 12 20  0  3 11.0000000  0 13G 1G 2G 3G32G20G23G 6G17G 9G10G11G12
                                G28
  23828757.492      633219.476       -3299.334          44.000  
  24859625.143     -280988.403        1458.442          44.000  
  22128988.041      689550.935       -3612.781          44.000  
  25798716.690      862427.635       -4488.174          44.000  
  21172016.425      605753.636       -3198.444          44.000  
  22462094.113      -93781.990         468.517          44.000  
  21605392.914     -142449.969         732.920          44.000  
  20235272.176       67198.392        -395.536          44.000  
  22668029.350     -373222.025        1947.093          44.000  
  21991199.185     -431012.580        2214.408          44.000  
  25216480.211      736993.962       -3878.144          44.000  
  24915167.249     -304342.639        1576.869          44.000  
  22636299.480      729600.149       -3915.380          44.000  
 14 12 20  0  3 12.0000000  0 13G 1G 2G 3G32G20G23G 6G17G 9G10G11G12
                                G28
  23829385.228      636519.763       -3300.474          44.000  
  24859347.545     -282447.924        1461.302          44.000  
  22129676.260      693163.551       -3612.203          44.000  
  25799570.948      866916.232       -4488.134          44.000  
  21172625.246      608952.606       -3198.674          44.000  
  22462005.431      -94248.397         465.395          44.000  
  21605253.225     -143183.507         735.035          44.000  
  20235347.980       67594.882        -397.037          44.000  
  22667659.249     -375167.088        1943.623          44.000  
  21990777.884     -433226.383        2214.262          44.000  
  25217219.420      740873.640       -3880.699          44.000  
  24914866.896     -305920.595        1579.683          44.000  
  22637045.407      733517.028       -3916.803          44.000  
 14 12 20  0  3 13.0000000  0 13G 1G 2G 3G32G20G23G 6G17G 9G10G11G12
                                G28
  23830014.535      639821.938       -3303.586          44.000  
  24859069.162     -283910.517        1463.700          44.000  
  22130363.711      696776.556       -3613.568          44.000  
  25800424.997      871404.921       -4489.100          44.000  
  21173234.502      612152.121       -3199.981          44.000  
  22461917.674      -94711.983         461.626          44.000  
  21605113.431     -143919.432         736.866          44.000  
  20235423.487       67991.570        -396.918          44.000  
  22667289.845     -377109.209        1940.010          44.000  
  21990356.810     -435440.200        2213.084          44.000  
  25217958.542      744756.190       -3884.254          44.000  
  24914566.386     -307501.391        1581.982          44.000  
  22637790.758      737434.906       -3918.583          44.000  
 14 12 20  0  3 14.0000000  0 13G 1G 2G 3G32G20G23G 6G17G 9G10G11G12
                                G28
  23830643.720      643126.379       -3305.534          44.000  
  24858790.918     -285376.085        1466.275          44.000  
  22131051.512      700390.363       -3614.527          44.000  
  25801280.005      875894.155       -4490.316          44.000  
  21173844.073      615352.525       -3201.167          44.000  
  22461830.754      -95172.503         459.157          44.000  
  21604973.568     -144657.552         739.057          44.000  
  20235499.151       68388.654        -397.411          44.000  
  22666920.825     -379048.297        1937.585          44.000  
  21989935.946     -437654.084        2213.656          44.000  
  25218697.907      748641.879       -3887.741          44.000  
  24914265.125     -309084.813        1583.269          44.000  
  22638536.842      741353.705       -3919.547          44.000  
 14 12 20  0  3 15.0000000  0 13G 1G 2G 3G32G20G23G 6G17G 9G10G11G12
                                G28
  23831273.185      646433.795       -3308.107          44.000  
  24858512.151     -286844.210        1470.517          44.000  
  22131739.871      704005.728       -3615.294          44.000  
  25802134.612      880384.771       -4490.516          44.000  
  21174453.836      618554.549       -3202.290          44.000  
  22461744.568      -95629.345         455.935          44.000  
  21604832.832     -145397.342         741.417          44.000  
  20235575.566       68786.687        -397.667          44.000  
  22666552.678     -380983.870        1935.025          44.000  
  21989514.872     -439867.701        2214.659          44.000  
  25219438.495      752531.375       -3890.835          44.000  
  24913963.656     -310670.169        1587.031          44.000  
  22639282.612      745273.764       -3919.642          44.000  
 14 12 20  0  3 16.0000000  0 13G 1G 2G 3G32G20G23G 6G17G 9G10G11G12
                                G28
  23831903.085      649743.395       -3310.504          44.000  
  24858232.459     -288315.929        1473.086          44.000  
  22132428.439      707621.879       -3616.788          44.000  
  25802989.202      884876.019       -4491.807          44.000  
  21175062.884      621757.383       -3203.318          44.000  
  22461658.137      -96083.430         453.095          44.000  
  21604692.078     -146139.768         743.631          44.000  
  20235650.916       69184.728        -398.057          44.000  
  22666185.211     -382917.046        1932.230          44.000  
  21989093.362     -442082.229        2214.933          44.000  
  25220179.972      756423.777       -3894.090          44.000  
  24913662.569     -312258.304        1589.465          44.000  
  22640028.923      749193.843       -3919.958          44.000  
 14 12 20  0  3 17.0000000  0 13G 1G 2G 3G32G20G23G 6G17G 9G10G11G12
                                G28
  23832533.911      653055.946       -3314.282          44.000  
  24857951.144     -289790.662        1476.129          44.000  
  22133117.722      711239.651       -3619.070          44.000  
  25803844.838      889368.810       -4493.904          44.000  
  21175673.048      624961.820       -3205.559          44.000  
  22461572.317      -96534.097         448.593          44.000  
  21604550.452     -146884.162         745.096          44.000  
  20235727.836       69583.436        -399.300          44.000  
  22665818.373     -384847.259        1928.449          44.000  
  21988672.254     -444297.229        2214.645          44.000  
  25220921.274      760319.784       -3897.972          44.000  
  24913360.035     -313848.456        1590.533          44.000  
  22640775.356      753114.381       -3920.996          44.000  
 14 12 20  0  3 18.0000000  0 13G 1G 2G 3G32G20G23G 6G17G 9G10G11G12
                                G28
  23833165.155      656371.569       -3316.394          44.000  
  24857670.719     -291268.510        1479.777          44.000  
  22133807.303      714859.200       -3620.143          44.000  
  25804700.178      893863.326       -4495.837          44.000  
  21176283.178      628167.997       -3206.352          44.000  
  22461488.015      -96981.375         446.265          44.000  
  21604408.739     -147630.526         748.011          44.000  
  20235804.426       69982.779        -399.261          44.000  
  22665452.040     -386774.704        1926.575          44.000  
  21988250.988     -446512.946        2216.835          44.000  
  25221663.362      764219.393       -3901.142          44.000  
  24913057.029     -315440.486        1593.205          44.000  
  22641521.300      757035.050       -3920.358          44.000  
 14 12 20  0  3 19.0000000  0 13G 1G 2G 3G32G20G23G 6G17G 9G10G11G12
                                G28
  23833796.835      659690.023       -3319.580          44.000  
  24857388.374     -292749.797        1483.242          44.000  
  22134496.481      718480.390       -3621.384          44.000  
  25805556.478      898359.482       -4497.300          44.000  
  21176893.865      631375.723       -3208.267          44.000  
  22461403.503      -97425.592         442.992          44.000  
  21604266.747     -148379.143         750.124          44.000  
  20235881.329       70382.473        -399.786          44.000  
  22665085.499     -388699.867        1924.250          44.000  
  21987829.426     -448729.882        2218.170          44.000  
  25222405.712      768122.276       -3904.881          44.000  
  24912753.954     -317034.544        1595.238          44.000  
  22642267.891      760955.321       -3919.892          44.000  
 14 12 20  0  3 20.0000000  0 13G 1G 2G 3G32G20G23G 6G17G 9G10G11G12
                                G28
  23834429.179      663011.387       -3323.522          44.000  
  24857106.449     -294234.597        1485.883          44.000  
  22135185.835      722103.321       -3624.467          44.000  
  25806413.004      902857.458       -4499.321          44.000  
  21177505.565      634585.086       -3211.030          44.000  
  22461319.690      -97866.815         438.997          44.000  
  21604123.882     -149129.981         751.552          44.000  
  20235956.993       70782.456        -400.469          44.000  
  22664719.934     -390622.940        1921.518          44.000  
  21987407.479     -450948.287        2218.556          44.000  
  25223150.103      772028.411       -3907.970          44.000  
  24912450.355     -318630.483        1595.907          44.000  
  22643014.132      764874.889       -3920.018          44.000  
 14 12 20  0  3 21.0000000  0 13G 1G 2G 3G32G20G23G 6G17G 9G10G11G12
                                G28
  23835062.761      666336.164       -3326.583          44.000  
  24856823.406     -295722.397        1490.259          44.000  
  22135876.532      725728.630       -3626.061          44.000  
  25807269.286      907357.904       -4501.670          44.000  
  21178116.218      637796.679       -3212.430          44.000  
  22461236.313      -98304.638         436.380          44.000  
  21603980.371     -149882.490         754.442          44.000  
  20236033.495       71183.231        -401.294          44.000  
  22664354.317     -392543.656        1919.851          44.000  
  21986985.638     -453167.862        2220.411          44.000  
  25223894.076      775938.194       -3911.522          44.000  
  24912147.210     -320227.640        1597.893          44.000  
  22643759.797      768793.986       -3918.158          44.000  
 14 12 20  0  3 22.0000000  0 13G 1G 2G 3G32G20G23G 6G17G 9G10G11G12
                                G28
  23835696.326      669664.304       -3330.512          44.000  
  24856540.189     -297213.300        1491.614          44.000  
  22136566.863      729356.350       -3629.448          44.000  
  25808126.685      911860.894       -4505.131          44.000  
  21178728.163      641010.508       -3215.620          44.000  
  22461154.035      -98739.223         432.753          44.000  
  21603837.471     -150636.719         754.012          44.000  
  20236109.996       71584.700        -402.227          44.000  
  22663989.328     -394462.313        1917.166          44.000  
  21986563.308     -455388.866        2220.835          44.000  
  25224639.200      779851.475       -3916.010          44.000  
  24911843.280     -321825.907        1597.696          44.000  
  22644505.549      772712.259       -3918.177          44.000  
 14 12 20  0  3 23.0000000  0 13G 1G 2G 3G32G20G23G 6G17G 9G10G11G12
                                G28
  23836330.520      672995.428       -3332.611          44.000  
  24856255.855     -298707.642        1496.249          44.000  
  22137257.682      732986.199       -3630.939          44.000  
  25808984.241      916366.214       -4506.059          44.000  
  21179340.403      644226.275       -3216.137          44.000  
  22461071.775      -99171.066         430.658          44.000  
  21603693.909     -151392.944         757.384          44.000  
  20236186.655       71986.470        -401.849          44.000  
  22663624.549     -396379.538        1916.619          44.000  
  21986140.122     -457611.860        2224.478          44.000  
  25225385.372      783767.781       -3917.776          44.000  
  24911539.279     -323425.460        1600.350          44.000  
  22645250.970      776629.102       -3915.817          44.000  
 14 12 20  0  3 24.0000000  0 13G 1G 2G 3G32G20G23G 6G17G 9G10G11G12
                                G28
  23836965.498      676329.814       -3336.031          44.000  
  24855971.905     -300205.059        1499.052          44.000  
  22137948.763      736618.587       -3633.164          44.000  
  25809842.059      920874.268       -4508.858          44.000  
  21179953.360      647444.339       -3218.497          44.000  
  22460990.160      -99599.986         428.158          44.000  
  21603550.346     -152150.798         759.294          44.000  
  20236263.593       72388.813        -402.436          44.000  
  22663260.607     -398295.252        1915.246          44.000  
  21985717.286     -459836.738        2226.152          44.000  
  25226131.351      787687.277       -3919.781          44.000  
  24911235.297     -325025.787        1600.959          44.000  
  22645996.182      780544.556       -3914.437          44.000  
 14 12 20  0  3 25.0000000  0 13G 1G 2G 3G32G20G23G 6G17G 9G10G11G12
                                G28
  23837600.477      679667.442       -3339.591          44.000  
  24855686.402     -301705.509        1501.345          44.000  
  22138640.978      740253.553       -3636.679          44.000  
  25810700.819      925385.166       -4513.071          44.000  
  21180566.334      650664.734       -3221.860          44.000  
  22460909.313     -100026.127         424.063          44.000  
  21603406.469     -152910.165         760.000          44.000  
  20236340.217       72791.740        -403.694          44.000  
  22662897.206     -400209.718        1913.467          44.000  
  21985293.734     -462063.630        2227.302          44.000  
  25226878.360      791609.810       -3924.251          44.000  
  24910930.127     -326626.710        1600.702          44.000  
  22646742.161      784458.381       -3913.450          44.000  
 14 12 20  0  3 26.0000000  0 13G 1G 2G 3G32G20G23G 6G17G 9G10G11G12
                                G28
  23838236.345      683008.461       -3342.949          44.000  
  24855400.829     -303208.653        1504.301          44.000  
  22139333.472      743891.427       -3640.039          44.000  
  25811560.278      929899.241       -4516.179          44.000  
  21181179.569      653887.761       -3224.490          44.000  
  22460828.885     -100449.397         421.831          44.000  
  21603262.400     -153670.716         760.732          44.000  
  20236417.138       73195.425        -404.834          44.000  
  22662533.561     -402122.958        1912.217          44.000  
  21984869.712     -464292.425        2229.188          44.000  
  25227625.212      795535.453       -3927.317          44.000  
  24910626.197     -328227.726        1600.917          44.000  
  22647487.181      788370.612       -3911.359          44.000  
 14 12 20  0  3 27.0000000  0 13G 1G 2G 3G32G20G23G 6G17G 9G10G11G12
                                G28
  23838872.667      686352.989       -3346.158          44.000  
  24855114.873     -304714.185        1505.979          44.000  
  22140026.403      747532.423       -3642.319          44.000  
  25812420.346      934416.764       -4519.163          44.000  
  21181794.061      657113.606       -3226.951          44.000  
  22460749.260     -100869.793         418.962          44.000  
  21603118.400     -154432.145         761.288          44.000  
  20236494.931       73600.104        -405.076          44.000  
  22662170.003     -404035.039        1911.925          44.000  
  21984446.020     -466523.081        2231.760          44.000  
  25228372.482      799464.226       -3930.374          44.000  
  24910321.952     -329828.454        1600.537          44.000  
  22648231.188      792281.207       -3909.917          44.000  
 14 12 20  0  3 28.0000000  0 13G 1G 2G 3G32G20G23G 6G17G 9G10G11G12
                                G28
  23839509.914      689700.302       -3349.117          44.000  
  24854828.305     -306222.627        1509.134          44.000  
  22140719.787      751175.945       -3645.830          44.000  
  25813280.415      938937.118       -4522.859          44.000  
  21182408.658      660341.688       -3229.821          44.000  
  22460669.879     -101288.097         417.148          44.000  
  21602973.302     -155194.920         763.089          44.000  
  20236572.602       74005.090        -405.676          44.000  
  22661806.603     -405946.847        1911.927          44.000  
  21984020.776     -468756.306        2234.048          44.000  
  25229120.451      803395.300       -3932.939          44.000  
  24910016.922     -331429.279        1599.627          44.000  
  22648975.004      796189.359       -3907.573          44.000  
 14 12 20  0  3 29.0000000  0 13G 1G 2G 3G32G20G23G 6G17G 9G10G11G12
                                G28
  23840147.615      693050.600       -3351.766          44.000  
  24854540.429     -307733.494        1512.136          44.000  
  22141414.236      754822.364       -3647.160          44.000  
  25814141.322      943460.709       -4524.879          44.000  
  21183023.708      663572.308       -3231.982          44.000  
  22460591.004     -101704.193         415.500          44.000  
  21602828.762     -155958.598         764.385          44.000  
  20236649.801       74410.696        -405.521          44.000  
  22661443.115     -407858.343        1911.552          44.000  
  21983596.422     -470991.874        2236.735          44.000  
  25229869.833      807328.755       -3934.692          44.000  
  24909713.079     -333029.633        1600.149          44.000  
  22649718.383      800095.220       -3904.630          44.000  
 14 12 20  0  3 30.0000000  0 13G 1G 2G 3G32G20G23G 6G17G 9G10G11G12
                                G28
  23840785.839      696403.864       -3355.197          44.000  
  24854252.483     -309246.516        1514.135          44.000  
  22142108.842      758471.735       -3651.112          44.000  
  25815002.403      947987.618       -4529.116          44.000  
  21183639.160      666805.559       -3234.653          44.000  
  22460512.705     -102118.176         412.608          44.000  
  21602683.244     -156722.939         764.320          44.000  
  20236727.193       74817.041        -406.462          44.000  
  22661080.115     -409769.643        1910.924          44.000  
  21983170.776     -473229.737        2238.705          44.000  
  25230618.360      811264.514       -3937.201          44.000  
  24909409.027     -334629.180        1598.496          44.000  
  22650461.815      803998.732       -3902.692          44.000  
 14 12 20  0  3 31.0000000  0 13G 1G 2G 3G32G20G23G 6G17G 9G10G11G12
                                G28
  23841424.360      699760.108       -3357.726          44.000  
  24853964.642     -310761.377        1515.433          44.000  
  22142804.582      762124.234       -3654.493          44.000  
  25815864.827      952518.036       -4531.972          44.000  
  21184255.432      670041.598       -3237.496          44.000  
  22460435.051     -102530.083         410.430          44.000  
  21602537.866     -157487.624         764.464          44.000  
  20236805.143       75224.226        -407.791          44.000  
  22660716.418     -411680.876        1910.418          44.000  
  21982744.450     -475469.780        2240.673          44.000  
  25231368.353      815202.482       -3939.138          44.000  
  24909104.869     -336227.541        1597.185          44.000  
  22651204.531      807899.920       -3900.209          44.000  
 14 12 20  0  3 32.0000000  0 13G 1G 2G 3G32G20G23G 6G17G 9G10G11G12
                                G28
  23842064.312      703118.894       -3360.085          44.000  
  24853676.015     -312278.100        1517.612          44.000  
  22143499.991      765779.576       -3656.353          44.000  
  25816727.933      957051.648       -4534.634          44.000  
  21184871.651      673280.124       -3240.045          44.000  
  22460357.834     -102940.375         409.724          44.000  
  21602392.210     -158252.734         765.062          44.000  
  20236882.500       75632.038        -407.989          44.000  
  22660352.912     -413592.530        1912.031          44.000  
  21982318.053     -477712.263        2244.249          44.000  
  25232118.503      819142.156       -3940.605          44.000  
  24908801.026     -337824.699        1596.487          44.000  
  22651946.549      811798.429       -3897.067          44.000  
 14 12 20  0  3 33.0000000  0 13G 1G 2G 3G32G20G23G 6G17G 9G10G11G12
                                G28
  23842704.822      706480.345       -3362.910          44.000  
  24853387.720     -313796.217        1518.188          44.000  
  22144196.551      769438.020       -3660.179          44.000  
  25817591.701      961588.722       -4539.027          44.000  
  21185489.494      676521.366       -3241.966          44.000  
  22460280.093     -103348.982         407.758          44.000  
  21602246.727     -159017.768         764.185          44.000  
  20236960.747       76040.722        -409.545          44.000  
  22659989.581     -415504.581        1911.609          44.000  
  21981891.448     -479956.923        2245.569          44.000  
  25232868.863      823083.570       -3942.287          44.000  
  24908497.724     -339420.164        1594.099          44.000  
  22652687.974      815694.407       -3895.719          44.000  
 14 12 20  0  3 34.0000000  0 13G 1G 2G 3G32G20G23G 6G17G 9G10G11G12
                                G28
  23843345.053      709843.994       -3365.545          44.000  
  24853097.942     -315315.758        1519.718          44.000  
  22144893.897      773099.209       -3662.965          44.000  
  25818455.958      966128.926       -4541.389          44.000  
  21186106.656      679765.026       -3245.008          44.000  
  22460203.242     -103756.409         406.529          44.000  
  21602100.948     -159782.920         764.875          44.000  
  20237038.104       76450.012        -410.645          44.000  
  22659625.727     -417417.531        1913.184          44.000  
  21981463.918     -482204.017        2247.742          44.000  
  25233619.379      827026.183       -3943.804          44.000  
  24908194.544     -341013.947        1592.906          44.000  
  22653429.277      819587.563       -3891.675          44.000  
 14 12 20  0  3 35.0000000  0 13G 1G 2G 3G32G20G23G 6G17G 9G10G11G12
                                G28
  23843986.331      713210.381       -3367.396          44.000  
  24852809.333     -316835.779        1520.647          44.000  
  22145591.382      776763.812       -3666.051          44.000  
  25819321.052      970672.912       -4545.879          44.000  
  21186724.358      683011.742       -3248.060          44.000  
  22460125.589     -104162.155         405.583          44.000  
  21601955.797     -160547.213         764.276          44.000  
  20237116.542       76860.645        -410.798          44.000  
  22659261.645     -419330.873        1914.167          44.000  
  21981036.562     -484452.769        2250.117          44.000  
  25234370.908      830970.474       -3944.977          44.000  
  24907891.416     -342605.146        1589.894          44.000  
  22654170.108      823478.514       -3889.816          44.000  
 14 12 20  0  3 36.0000000  0 13G 1G 2G 3G32G20G23G 6G17G 9G10G11G12
                                G28
  23844627.452      716578.650       -3369.659          44.000  
  24852520.130     -318356.654        1521.351          44.000  
  22146289.164      780431.143       -3668.695          44.000  
  25820186.740      975219.949       -4548.557          44.000  
  21187342.602      686260.815       -3250.321          44.000  
  22460048.302     -104567.043         404.520          44.000  
  21601810.541     -161311.104         763.240          44.000  
  20237195.382       77271.982        -411.715          44.000  
  22658897.041     -421245.462        1914.952          44.000  
  21980608.805     -486703.738        2251.590          44.000  
  25235122.157      834915.524       -3945.653          44.000  
  24907589.545     -344194.128        1587.852          44.000  
  22654909.928      827366.650       -3886.858          44.000  
 14 12 20  0  3 37.0000000  0 13G 1G 2G 3G32G20G23G 6G17G 9G10G11G12
                                G28
  23845268.818      719948.708       -3370.314          44.000  
  24852230.701     -319878.014        1521.851          44.000  
  22146987.679      784101.200       -3670.833          44.000  
  25821052.690      979770.054       -4550.900          44.000  
  21187961.928      689512.282       -3252.410          44.000  
  22459971.800     -104971.210         404.139          44.000  
  21601665.216     -162074.309         763.353          44.000  
  20237274.449       77684.124        -411.622          44.000  
  22658532.855     -423161.361        1917.018          44.000  
  21980180.245     -488956.745        2254.499          44.000  
  25235873.092      838861.184       -3945.437          44.000  
  24907288.336     -345780.569        1585.935          44.000  
  22655649.398      831252.057       -3883.474          44.000  
 14 12 20  0  3 38.0000000  0 13G 1G 2G 3G32G20G23G 6G17G 9G10G11G12
                                G28
  23845910.026      723319.749       -3371.553          44.000  
  24851941.289     -321400.158        1521.830          44.000  
  22147686.508      787773.312       -3673.589          44.000  
  25821918.831      984322.510       -4553.943          44.000  
  21188581.742      692765.456       -3254.658          44.000  
  22459895.176     -105375.411         404.434          44.000  
  21601519.437     -162837.203         761.614          44.000  
  20237353.499       78096.516        -412.980          44.000  
  22658168.005     -425079.347        1918.729          44.000  
  21979751.231     -491212.254        2256.329          44.000  
  25236623.661      842806.635       -3945.698          44.000  
  24906987.442     -347364.869        1582.895          44.000  
  22656388.799      835134.183       -3881.043          44.000  
 14 12 20  0  3 39.0000000  0 13G 1G 2G 3G32G20G23G 6G17G 9G10G11G12
                                G28
  23846552.334      726692.358       -3374.172          44.000  
  24851651.807     -322922.016        1520.605          44.000  
  22148385.947      791448.174       -3677.253          44.000  
  25822786.195      988878.025       -4557.950          44.000  
  21189201.574      696021.094       -3257.281          44.000  
  22459819.582     -105779.071         402.353          44.000  
  21601374.530     -163598.763         759.914          44.000  
  20237432.234       78509.982        -414.835          44.000  
  22657803.383     -426998.762        1919.241          44.000  
  21979322.148     -493469.330        2257.129          44.000  
  25237374.491      846752.411       -3946.488          44.000  
  24906686.583     -348945.953        1579.142          44.000  
  22657127.100      839013.903       -3879.556          44.000  
 14 12 20  0  3 40.0000000  0 13G 1G 2G 3G32G20G23G 6G17G 9G10G11G12
                                G28
  23847194.275      730066.765       -3375.117          44.000  
  24851363.041     -324442.858        1519.804          44.000  
  22149086.696      795126.130       -3679.123          44.000  
  25823654.343      993436.866       -4560.488          44.000  
  21189822.418      699279.488       -3259.820          44.000  
  22459742.976     -106181.928         402.333          44.000  
  21601230.775     -164358.415         758.508          44.000  
  20237512.086       78924.982        -415.536          44.000  
  22657438.168     -428919.329        1921.279          44.000  
  21978892.663     -495727.389        2258.319          44.000  
  25238125.671      850698.680       -3946.658          44.000  
  24906386.788     -350523.275        1575.459          44.000  
  22657865.314      842891.704       -3876.773          44.000  
 14 12 20  0  3 41.0000000  0 13G 1G 2G 3G32G20G23G 6G17G 9G10G11G12
                                G28
  23847836.827      733441.868       -3375.120          44.000  
  24851073.891     -325963.267        1520.756          44.000  
  22149787.287      798806.158       -3681.328          44.000  
  25824522.753      997998.032       -4561.278          44.000  
  21190443.401      702539.697       -3260.702          44.000  
  22459666.107     -106585.037         403.781          44.000  
  21601087.003     -165116.781         758.241          44.000  
  20237591.101       79340.658        -415.798          44.000  
  22657072.324     -430842.020        1924.021          44.000  
  21978462.777     -497987.128        2260.823          44.000  
  25238876.868      854644.373       -3944.951          44.000  
  24906087.674     -352097.465        1573.119          44.000  
  22658603.074      846766.839       -3873.471          44.000  
 14 12 20  0  3 42.0000000  0 13G 1G 2G 3G32G20G23G 6G17G 9G10G11G12
                                G28
  23848479.815      736817.648       -3375.893          44.000  
  24850784.985     -327482.746        1519.657          44.000  
  22150488.925      802488.389       -3682.772          44.000  
  25825391.791     1002561.572       -4564.781          44.000  
  21191064.873      705801.812       -3262.623          44.000  
  22459588.995     -106988.372         404.071          44.000  
  21600943.126     -165873.478         756.213          44.000  
  20237670.691       79757.278        -416.468          44.000  
  22656706.375     -432766.717        1925.842          44.000  
  21978032.751     -500248.163        2261.415          44.000  
  25239626.861      858589.439       -3944.346          44.000  
  24905789.450     -353668.156        1569.463          44.000  
  22659340.311      850639.633       -3871.163          44.000  
 14 12 20  0  3 43.0000000  0 13G 1G 2G 3G32G20G23G 6G17G 9G10G11G12
                                G28
  23849122.419      740193.485       -3375.438          44.000  
  24850496.812     -329001.440        1518.745          44.000  
  22151189.726      806172.224       -3684.145          44.000  
  25826260.515     1007126.876       -4565.116          44.000  
  21191685.700      709065.305       -3263.734          44.000  
  22459512.493     -107392.538         404.783          44.000  
  21600800.174     -166628.736         755.108          44.000  
  20237750.701       80174.389        -416.850          44.000  
  22656339.607     -434693.952        1929.184          44.000  
  21977601.748     -502510.693        2263.864          44.000  
  25240377.779      862533.228       -3942.775          44.000  
  24905490.859     -355235.620        1566.413          44.000  
  22660076.867      854509.813       -3868.555          44.000  
 14 12 20  0  3 44.0000000  0 13G 1G 2G 3G32G20G23G 6G17G 9G10G11G12
                                G28
  23849765.111      743568.946       -3375.645          44.000  
  24850207.959     -330519.237        1516.726          44.000  
  22151891.190      809857.351       -3685.621          44.000  
  25827129.903     1011693.568       -4567.299          44.000  
  21192307.887      712329.871       -3265.129          44.000  
  22459435.538     -107797.864         405.070          44.000  
  21600656.785     -167382.561         753.259          44.000  
  20237830.186       80591.900        -418.184          44.000  
  22655972.279     -436623.960        1931.497          44.000  
  21977171.147     -504774.704        2264.725          44.000  
  25241128.888      866475.367       -3941.516          44.000  
  24905193.508     -356799.901        1562.691          44.000  
  22660812.411      858377.348       -3866.218          44.000  
 14 12 20  0  3 45.0000000  0 13G 1G 2G 3G32G20G23G 6G17G 9G10G11G12
                                G28
  23850407.802      746944.459       -3375.430          44.000  
  24849919.576     -332035.187        1515.355          44.000  
  22152592.933      813544.252       -3687.392          44.000  
  25827999.622     1016262.114       -4569.325          44.000  
  21192929.237      715596.034       -3266.475          44.000  
  22459358.966     -108203.844         406.474          44.000  
  21600514.165     -168134.136         750.746          44.000  
  20237910.091       81010.469        -418.563          44.000  
  22655604.464     -438556.137        1933.471          44.000  
  21976740.510     -507039.323        2264.382          44.000  
  25241879.056      870416.273       -3939.693          44.000  
  24904897.168     -358360.234        1558.385          44.000  
  22661547.589      862243.053       -3864.843          44.000  
 14 12 20  0  3 46.0000000  0 13G 1G 2G 3G32G20G23G 6G17G 9G10G11G12
                                G28
  23851050.284      750319.443       -3374.701          44.000  
  24849632.084     -333549.464        1512.926          44.000  
  22153295.514      817232.388       -3689.177          44.000  
  25828869.009     1020831.927       -4570.618          44.000  
  21193550.692      718863.265       -3267.788          44.000  
  22459281.993     -108611.027         407.518          44.000  
  21600372.294     -168883.704         747.951          44.000  
  20237990.484       81429.713        -420.122          44.000  
  22655236.980     -440490.918        1936.166          44.000  
  21976309.490     -509304.708        2265.129          44.000  
  25242628.420      874355.357       -3938.484          44.000  
  24904601.247     -359916.908        1554.369          44.000  
  22662283.622      866106.757       -3863.372          44.000  
 14 12 20  0  3 47.0000000  0 13G 1G 2G 3G32G20G23G 6G17G 9G10G11G12
                                G28
  23851692.295      753693.711       -3373.670          44.000  
  24849344.854     -335061.709        1511.458          44.000  
  22153997.798      820921.673       -3689.621          44.000  
  25829739.269     1025402.847       -4571.046          44.000  
  21194172.897      722131.500       -3268.027          44.000  
  22459204.252     -109019.458         409.273          44.000  
  21600230.058     -169631.007         746.736          44.000  
  20238071.069       81849.765        -419.663          44.000  
  22654868.309     -442428.221        1938.749          44.000  
  21975879.167     -511570.525        2266.326          44.000  
  25243377.715      878292.518       -3936.080          44.000  
  24904306.339     -361469.776        1551.279          44.000  
  22663018.817      869968.760       -3860.461          44.000  
 14 12 20  0  3 48.0000000  0 13G 1G 2G 3G32G20G23G 6G17G 9G10G11G12
                                G28
  23852334.359      757067.021       -3373.639          44.000  
  24849057.972     -336571.741        1508.296          44.000  
  22154699.960      824611.870       -3691.747          44.000  
  25830610.017     1029974.599       -4573.045          44.000  
  21194794.648      725400.542       -3270.473          44.000  
  22459126.285     -109429.319         410.027          44.000  
  21600088.310     -170376.021         742.755          44.000  
  20238151.131       82270.552        -422.096          44.000  
  22654499.778     -444368.113        1940.606          44.000  
  21975448.287     -513836.627        2265.022          44.000  
  25244127.551      882227.542       -3934.390          44.000  
  24904012.302     -363018.830        1546.657          44.000  
  22663754.082      873829.182       -3860.411          44.000  
 14 12 20  0  3 49.0000000  0 13G 1G 2G 3G32G20G23G 6G17G 9G10G11G12
                                G28
  23852976.544      760439.855       -3371.678          44.000  
  24848771.073     -338078.684        1506.156          44.000  
  22155402.244      828303.473       -3691.205          44.000  
  25831480.835     1034547.649       -4573.035          44.000  
  21195417.429      728670.941       -3270.617          44.000  
  22459048.265     -109840.048         411.738          44.000  
  21599946.893     -171117.931         741.175          44.000  
  20238231.437       82692.827        -422.071          44.000  
  22654130.601     -446309.891        1943.264          44.000  
  21975016.935     -516102.071        2266.021          44.000  
  25244876.061      886160.914       -3932.421          44.000  
  24903718.545     -364563.378        1543.514          44.000  
  22664488.579      877688.936       -3858.372          44.000  
 14 12 20  0  3 50.0000000  0 13G 1G 2G 3G32G20G23G 6G17G 9G10G11G12
                                G28
  23853618.101      763810.986       -3371.282          44.000  
  24848484.977     -339583.291        1502.738          44.000  
  22156105.435      831995.291       -3692.463          44.000  
  25832351.706     1039120.715       -4574.016          44.000  
  21196039.354      731941.525       -3271.956          44.000  
  22458970.437     -110252.746         412.854          44.000  
  21599806.489     -171857.640         738.193          44.000  
  20238312.284       83115.525        -423.310          44.000  
  22653761.721     -448254.504        1945.201          44.000  
  21974586.124     -518367.596        2264.709          44.000  
  25245624.378      890091.508       -3930.265          44.000  
  24903425.661     -366104.414        1538.209          44.000  
  22665223.198      881547.283       -3858.566          44.000  
 14 12 20  0  3 51.0000000  0 13G 1G 2G 3G32G20G23G 6G17G 9G10G11G12
                                G28
  23854259.379      767180.691       -3369.853          44.000  
  24848199.962     -341084.952        1499.570          44.000  
  22156808.033      835687.593       -3693.236          44.000  
  25833222.088     1043694.049       -4574.016          44.000  
  21196661.874      735212.605       -3272.354          44.000  
  22458892.487     -110667.042         414.429          44.000  
  21599665.892     -172594.611         734.218          44.000  
  20238392.938       83539.188        -424.707          44.000  
  22653391.322     -450201.440        1947.968          44.000  
  21974155.417     -520632.536        2264.260          44.000  
  25246371.911      894019.640       -3927.393          44.000  
  24903133.283     -367641.486        1534.533          44.000  
  22665957.660      885404.900       -3857.968          44.000  
 14 12 20  0  3 52.0000000  0 13G 1G 2G 3G32G20G23G 6G17G 9G10G11G12
                                G28
  23854900.622      770548.531       -3367.141          44.000  
  24847915.751     -342583.725        1497.170          44.000  
  22157510.998      839379.973       -3692.012          44.000  
  25834093.133     1048267.167       -4572.873          44.000  
  21197284.427      738483.778       -3270.922          44.000  
  22458812.861     -111083.235         416.718          44.000  
  21599526.552     -173329.004         733.475          44.000  
  20238473.750       83963.546        -424.350          44.000  
  22653020.401     -452150.897        1951.472          44.000  
  21973724.484     -522896.879        2264.501          44.000  
  25247119.112      897944.963       -3923.528          44.000  
  24902841.672     -369174.860        1531.893          44.000  
  22666692.105      889261.808       -3856.420          44.000  
 14 12 20  0  3 53.0000000  0 13G 1G 2G 3G32G20G23G 6G17G 9G10G11G12
                                G28
  23855541.272      773914.498       -3365.871          44.000  
  24847631.295     -344079.299        1493.966          44.000  
  22158213.631      843072.357       -3692.708          44.000  
  25834963.009     1052839.952       -4573.083          44.000  
  21197907.156      741755.049       -3271.950          44.000  
  22458733.760     -111501.253         418.401          44.000  
  21599387.247     -174060.648         730.099          44.000  
  20238554.876       84388.770        -425.966          44.000  
  22652649.077     -454102.620        1952.718          44.000  
  21973294.563     -525160.202        2262.274          44.000  
  25247865.911      901867.499       -3921.992          44.000  
  24902550.916     -370704.479        1526.854          44.000  
  22667426.306      893118.411       -3857.016          44.000  
 14 12 20  0  3 54.0000000  0 13G 1G 2G 3G32G20G23G 6G17G 9G10G11G12
                                G28
  23856181.678      777278.477       -3362.686          44.000  
  24847347.449     -345571.506        1490.613          44.000  
  22158916.543      846764.642       -3691.588          44.000  
  25835833.077     1057412.255       -4571.166          44.000  
  21198529.919      745026.298       -3271.179          44.000  
  22458654.204     -111921.099         420.348          44.000  
  21599249.216     -174789.418         727.604          44.000  
  20238636.055       84814.936        -426.161          44.000  
  22652277.894     -456056.453        1955.241          44.000  
  21972864.066     -527422.243        2261.585          44.000  
  25248612.397      905787.250       -3917.833          44.000  
  24902261.313     -372230.347        1524.524          44.000  
  22668161.099      896975.018       -3856.201          44.000  
 14 12 20  0  3 55.0000000  0 13G 1G 2G 3G32G20G23G 6G17G 9G10G11G12
                                G28
  23856821.630      780639.742       -3359.895          44.000  
  24847064.145     -347060.813        1488.115          44.000  
  22159619.595      850456.044       -3690.282          44.000  
  25836703.075     1061983.217       -4570.121          44.000  
  21199152.718      748296.854       -3270.194          44.000  
  22458573.968     -112343.341         423.981          44.000  
  21599111.918     -175515.929         725.651          44.000  
  20238717.652       85241.427        -426.536          44.000  
  22651905.489     -458012.845        1957.177          44.000  
  21972434.425     -529683.354        2260.537          44.000  
  25249358.411      909703.559       -3914.299          44.000  
  24901971.412     -373753.147        1521.223          44.000  
  22668894.986      900831.307       -3856.239          44.000  
 14 12 20  0  3 56.0000000  0 13G 1G 2G 3G32G20G23G 6G17G 9G10G11G12
                                G28
  23857461.948      783998.542       -3357.212          44.000  
  24846781.469     -348546.743        1484.350          44.000  
  22160322.385      854146.760       -3689.710          44.000  
  25837572.427     1066553.006       -4568.886          44.000  
  21199775.429      751566.892       -3269.440          44.000  
  22458493.261     -112767.662         425.844          44.000  
  21598974.305     -176239.764         722.873          44.000  
  20238799.284       85668.662        -427.190          44.000  
  22651533.066     -459971.287        1959.794          44.000  
  21972004.172     -531942.901        2259.093          44.000  
  25250103.343      913616.772       -3911.572          44.000  
  24901682.070     -375272.619        1518.528          44.000  
  22669628.802      904687.953       -3856.540          44.000  
 14 12 20  0  3 57.0000000  0 13G 1G 2G 3G32G20G23G 6G17G 9G10G11G12
                                G28
  23858100.678      787354.629       -3354.814          44.000  
  24846499.665     -350029.376        1480.896          44.000  
  22161024.931      857836.498       -3689.368          44.000  
  25838441.867     1071121.264       -4567.730          44.000  
  21200397.599      754836.158       -3268.606          44.000  
  22458412.152     -113194.153         427.677          44.000  
  21598837.600     -176961.072         719.867          44.000  
  20238881.265       86096.494        -428.320          44.000  
  22651160.050     -461931.776        1961.465          44.000  
  21971574.303     -534200.833        2256.839          44.000  
  25250847.560      917526.741       -3908.357          44.000  
  24901393.897     -376789.027        1515.358          44.000  
  22670363.334      908545.045       -3856.964          44.000  
 14 12 20  0  3 58.0000000  0 13G 1G 2G 3G32G20G23G 6G17G 9G10G11G12
                                G28
  23858739.095      790708.178       -3352.135          44.000  
  24846218.979     -351508.385        1477.533          44.000  
  22161727.407      861525.378       -3688.446          44.000  
  25839310.539     1075688.064       -4565.582          44.000  
  21201020.222      758104.816       -3267.836          44.000  
  22458331.201     -113622.520         430.130          44.000  
  21598701.471     -177679.603         717.177          44.000  
  20238962.828       86525.213        -428.878          44.000  
  22650787.087     -463893.838        1962.516          44.000  
  21971144.697     -536456.634        2254.777          44.000  
  25251591.568      921433.725       -3905.650          44.000  
  24901106.475     -378302.269        1511.510          44.000  
  22671097.692      912403.135       -3858.505          44.000  
 14 12 20  0  3 59.0000000  0 13G 1G 2G 3G32G20G23G 6G17G 9G10G11G12
                                G28
  23859377.354      794058.648       -3349.089          44.000  
  24845938.082     -352984.215        1474.224          44.000  
  22162429.185      865212.749       -3686.808          44.000  
  25840179.996     1080252.736       -4563.437          44.000  
  21201642.061      761372.251       -3267.012          44.000  
  22458249.621     -114053.219         432.156          44.000  
  21598564.539     -178395.908         715.199          44.000  
  20239044.896       86954.340        -429.380          44.000  
  22650413.460     -465857.779        1964.771          44.000  
  21970716.939     -538710.577        2252.650          44.000  
  25252334.284      925337.299       -3901.773          44.000  
  24900818.564     -379812.969        1509.035          44.000  
  22671831.980      916262.024       -3859.877          44.000  
 14 12 20  0  4  0.0000000  0 13G 1G 2G 3G32G20G23G 6G17G 9G10G11G12
                                G28
  23860014.269      797406.199       -3345.837          44.000  
  24845658.373     -354456.636        1471.515          44.000  
  22163130.840      868898.709       -3684.744          44.000  
  25841048.929     1084815.289       -4561.271          44.000  
  21202265.261      764638.584       -3265.422          44.000  
  22458167.378     -114485.966         433.738          44.000  
  21598428.968     -179109.790         712.952          44.000  
  20239126.633       87384.101        -429.681          44.000  
  22650039.589     -467823.193        1966.503          44.000  
  21970289.060     -540962.265        2250.563          44.000  
  25253076.703      929237.715       -3898.661          44.000  
  24900532.014     -381321.088        1507.538          44.000  
  22672566.599      920122.169       -3860.786          44.000  
 14 12 20  0  4  1.0000000  0 13G 1G 2G 3G32G20G23G 6G17G 9G10G11G12
                                G28
  23860650.888      800750.718       -3342.635          44.000  
  24845378.855     -355925.761        1467.823          44.000  
  22163832.374      872583.044       -3682.830          44.000  
  25841916.694     1089375.497       -4558.334          44.000  
  21202886.680      767903.643       -3263.798          44.000  
  22458085.065     -114920.730         436.477          44.000  
  21598294.445     -179821.388         711.327          44.000  
  20239208.439       87814.438        -429.785          44.000  
  22649665.317     -469789.936        1967.880          44.000  
  21969861.250     -543211.566        2248.556          44.000  
  25253818.530      933134.964       -3895.404          44.000  
  24900246.161     -382826.903        1504.894          44.000  
  22673301.358      923983.760       -3861.731          44.000  
 14 12 20  0  4  2.0000000  0 13G 1G 2G 3G32G20G23G 6G17G 9G10G11G12
                                G28
  23861287.385      804091.889       -3339.873          44.000  
  24845100.559     -357391.895        1464.219          44.000  
  22164533.454      876265.328       -3681.275          44.000  
  25842784.162     1093932.886       -4556.343          44.000  
  21203507.367      771167.007       -3262.194          44.000  
  22458001.985     -115357.766         437.943          44.000  
  21598159.328     -180531.118         708.341          44.000  
  20239290.787       88245.032        -431.143          44.000  
  22649290.958     -471758.078        1968.590          44.000  
  21969434.558     -545458.631        2245.593          44.000  
  25254559.989      937028.833       -3892.218          44.000  
  24899959.943     -384330.905        1502.974          44.000  
  22674036.274      927846.729       -3863.623          44.000  
 14 12 20  0  4  3.0000000  0 13G 1G 2G 3G32G20G23G 6G17G 9G10G11G12
                                G28
  23861922.416      807429.990       -3335.993          44.000  
  24844822.281     -358854.835        1461.782          44.000  
  22165233.888      879945.724       -3679.151          44.000  
  25843651.525     1098487.602       -4552.822          44.000  
  21204128.455      774428.900       -3261.052          44.000  
  22457918.416     -115796.683         440.222          44.000  
  21598024.978     -181238.771         707.051          44.000  
  20239373.117       88676.171        -431.373          44.000  
  22648916.860     -473727.150        1969.885          44.000  
  21969007.219     -547703.027        2243.115          44.000  
  25255300.105      940919.709       -3889.370          44.000  
  24899674.074     -385833.053        1501.320          44.000  
  22674771.940      931711.585       -3865.239          44.000  
 14 12 20  0  4  4.0000000  0 13G 1G 2G 3G32G20G23G 6G17G 9G10G11G12
                                G28
  23862557.621      810765.015       -3334.025          44.000  
  24844543.740     -360314.686        1457.365          44.000  
  22165934.410      883624.149       -3677.853          44.000  
  25844517.876     1103039.491       -4550.935          44.000  
  21204748.741      777689.234       -3260.475          44.000  
  22457834.585     -116237.336         441.563          44.000  
  21597890.908     -181944.501         704.048          44.000  
  20239455.796       89107.848        -432.776          44.000  
  22648542.587     -475696.904        1969.753          44.000  
  21968581.643     -549944.597        2239.816          44.000  
  25256040.291      944807.715       -3886.563          44.000  
  24899388.797     -387333.580        1499.061          44.000  
  22675508.775      935578.543       -3868.468          44.000  
 14 12 20  0  4  5.0000000  0 13G 1G 2G 3G32G20G23G 6G17G 9G10G11G12
                                G28
  23863191.849      814097.078       -3331.061          44.000  
  24844266.823     -361771.486        1453.967          44.000  
  22166634.146      887300.550       -3676.092          44.000  
  25845383.197     1107588.501       -4547.611          44.000  
  21205369.183      780947.991       -3259.007          44.000  
  22457750.771     -116679.603         441.773          44.000  
  21597757.624     -182648.364         702.398          44.000  
  20239538.022       89540.126        -432.599          44.000  
  22648168.088     -477667.066        1970.026          44.000  
  21968156.120     -552183.206        2236.401          44.000  
  25256779.587      948693.026       -3884.307          44.000  
  24899103.661     -388832.658        1498.066          44.000  
  22676245.820      939447.859       -3870.698          44.000  
 14 12 20  0  4  6.0000000  0 13G 1G 2G 3G32G20G23G 6G17G 9G10G11G12
                                G28
  23863825.536      817426.338       -3328.481          44.000  
  24843990.394     -363225.218        1451.362          44.000  
  22167333.149      890974.992       -3673.905          44.000  
  25846248.588     1112134.658       -4544.722          44.000  
  21205989.626      784205.269       -3256.940          44.000  
  22457666.801     -117123.159         443.803          44.000  
  21597624.252     -183350.349         700.524          44.000  
  20239620.282       89973.103        -434.008          44.000  
  22647793.345     -479637.262        1969.766          44.000  
  21967730.998     -554418.597        2233.701          44.000  
  25257519.162      952575.930       -3882.464          44.000  
  24898819.083     -390330.428        1496.449          44.000  
  22676982.813      943319.859       -3873.556          44.000  
 14 12 20  0  4  7.0000000  0 13G 1G 2G 3G32G20G23G 6G17G 9G10G11G12
                                G28
  23864458.927      820752.599       -3324.958          44.000  
  24843714.576     -364676.341        1449.771          44.000  
  22168031.717      894647.128       -3670.905          44.000  
  25847114.136     1116677.600       -4540.901          44.000  
  21206609.527      787460.712       -3254.633          44.000  
  22457582.482     -117568.166         445.732          44.000  
  21597491.368     -184050.927         699.996          44.000  
  20239702.717       90406.505        -433.032          44.000  
  22647418.375     -481607.553        1970.253          44.000  
  21967306.486     -556651.009        2231.110          44.000  
  25258257.499      956456.330       -3879.181          44.000  
  24898534.888     -391827.425        1496.820          44.000  
  22677720.399      947194.416       -3876.065          44.000  
 14 12 20  0  4  8.0000000  0 13G 1G 2G 3G32G20G23G 6G17G 9G10G11G12
                                G28
  23865090.956      824075.536       -3321.031          44.000  
  24843439.281     -366125.427        1448.085          44.000  
  22168729.952      898316.511       -3667.988          44.000  
  25847977.887     1121216.839       -4537.045          44.000  
  21207229.132      790713.890       -3252.365          44.000  
  22457497.482     -118014.879         447.730          44.000  
  21597358.799     -184750.672         699.060          44.000  
  20239786.199       90839.882        -433.445          44.000  
  22647043.649     -483578.103        1970.563          44.000  
  21966881.591     -558880.771        2228.558          44.000  
  25258995.835      960333.979       -3876.514          44.000  
  24898250.049     -393324.311        1497.250          44.000  
  22678458.229      951071.266       -3878.061          44.000  
 14 12 20  0  4  9.0000000  0 13G 1G 2G 3G32G20G23G 6G17G 9G10G11G12
                                G28
  23865723.108      827395.774       -3319.247          44.000  
  24843164.143     -367572.113        1445.464          44.000  
  22169428.624      901983.640       -3666.278          44.000  
  25848841.516     1125752.903       -4534.104          44.000  
  21207847.533      793965.350       -3250.888          44.000  
  22457412.673     -118462.565         448.535          44.000  
  21597225.689     -185449.182         697.620          44.000  
  20239869.192       91273.800        -434.489          44.000  
  22646669.446     -485548.145        1969.459          44.000  
  21966457.969     -561107.273        2225.111          44.000  
  25259733.735      964209.634       -3875.012          44.000  
  24897964.947     -394820.792        1496.204          44.000  
  22679197.402      954951.129       -3881.498          44.000  
 14 12 20  0  4 10.0000000  0 13G 1G 2G 3G32G20G23G 6G17G 9G10G11G12
                                G28
  23866354.771      830713.356       -3315.819          44.000  
  24842889.529     -369016.711        1444.889          44.000  
  22170125.708      905648.392       -3662.815          44.000  
  25849703.993     1130285.617       -4530.713          44.000  
  21208466.230      797214.938       -3248.311          44.000  
  22457327.359     -118911.193         449.384          44.000  
  21597093.241     -186146.761         697.638          44.000  
  20239951.470       91708.131        -433.656          44.000  
  22646295.314     -487517.535        1969.465          44.000  
  21966034.575     -563330.646        2222.393          44.000  
  25260471.669      968083.378       -3872.358          44.000  
  24897680.159     -396317.274        1497.187          44.000  
  22679936.594      958833.966       -3884.245          44.000  
 14 12 20  0  4 11.0000000  0 13G 1G 2G 3G32G20G23G 6G17G 9G10G11G12
                                G28
  23866985.753      834028.568       -3313.673          44.000  
  24842615.090     -370459.296        1441.688          44.000  
  22170822.861      909310.911       -3661.256          44.000  
  25850566.802     1134815.167       -4527.360          44.000  
  21209084.998      800462.847       -3246.666          44.000  
  22457242.447     -119360.377         449.216          44.000  
  21596960.550     -186843.469         696.392          44.000  
  20240035.039       92143.000        -435.298          44.000  
  22645921.268     -489485.904        1967.562          44.000  
  21965612.803     -565550.711        2218.666          44.000  
  25261208.679      971955.605       -3871.212          44.000  
  24897395.791     -397813.824        1497.211          44.000  
  22680675.942      962720.058       -3887.953          44.000  
 14 12 20  0  4 12.0000000  0 13G 1G 2G 3G32G20G23G 6G17G 9G10G11G12
                                G28
  23867616.334      837341.272       -3311.401          44.000  
  24842340.982     -371900.301        1440.577          44.000  
  22171519.684      912970.988       -3658.498          44.000  
  25851428.040     1139341.293       -4524.275          44.000  
  21209703.015      803708.833       -3245.039          44.000  
  22457157.377     -119810.209         450.157          44.000  
  21596828.661     -187539.706         695.977          44.000  
  20240118.329       92578.160        -434.838          44.000  
  22645546.804     -491453.262        1966.821          44.000  
  21965191.537     -567767.727        2215.833          44.000  
  25261945.236      975826.268       -3869.529          44.000  
  24897111.457     -399310.980        1497.664          44.000  
  22681416.494      966609.237       -3889.903          44.000  
 14 12 20  0  4 13.0000000  0 13G 1G 2G 3G32G20G23G 6G17G 9G10G11G12
                                G28
  23868246.409      840651.630       -3309.656          44.000  
  24842067.589     -373340.059        1439.204          44.000  
  22172216.401      916628.587       -3656.383          44.000  
  25852289.313     1143863.975       -4521.492          44.000  
  21210320.490      806952.860       -3243.458          44.000  
  22457071.749     -120260.534         450.212          44.000  
  21596696.807     -188235.710         696.073          44.000  
  20240201.322       93013.540        -435.677          44.000  
  22645172.863     -493419.471        1965.310          44.000  
  21964770.341     -569981.786        2212.224          44.000  
  25262681.303      979695.587       -3868.577          44.000  
  24896827.385     -400809.029        1498.293          44.000  
  22682157.483      970501.490       -3894.010          44.000  
 14 12 20  0  4 14.0000000  0 13G 1G 2G 3G32G20G23G 6G17G 9G10G11G12
                                G28
  23868876.484      843960.243       -3308.236          44.000  
  24841794.197     -374778.385        1437.610          44.000  
  22172912.473      920284.178       -3655.062          44.000  
  25853149.120     1148383.721       -4518.689          44.000  
  21210938.246      810195.432       -3242.281          44.000  
  22456986.173     -120710.702         449.699          44.000  
  21596564.762     -188931.293         695.409          44.000  
  20240284.856       93449.576        -436.217          44.000  
  22644799.411     -495383.858        1963.183          44.000  
  21964349.931     -572192.505        2209.174          44.000  
  25263418.121      983564.221       -3868.979          44.000  
  24896542.004     -402307.802        1498.499          44.000  
  22682898.995      974397.317       -3897.207          44.000  
 14 12 20  0  4 15.0000000  0 13G 1G 2G 3G32G20G23G 6G17G 9G10G11G12
                                G28
  23869506.193      847266.758       -3305.251          44.000  
  24841520.979     -376216.078        1438.018          44.000  
  22173607.742      923937.288       -3651.618          44.000  
  25854009.136     1152900.046       -4514.310          44.000  
  21211554.308      813436.061       -3239.054          44.000  
  22456900.806     -121161.059         450.812          44.000  
  21596432.524     -189627.160         696.487          44.000  
  20240368.286       93885.669        -436.293          44.000  
  22644426.221     -497346.789        1962.589          44.000  
  21963929.921     -574400.505        2206.922          44.000  
  25264154.032      987431.890       -3867.210          44.000  
  24896257.112     -403808.039        1501.614          44.000  
  22683641.031      978296.175       -3900.057          44.000  
 14 12 20  0  4 16.0000000  0 13G 1G 2G 3G32G20G23G 6G17G 9G10G11G12
                                G28
  23870135.989      850571.942       -3304.789          44.000  
  24841248.389     -377652.837        1436.392          44.000  
  22174303.238      927588.570       -3650.874          44.000  
  25854868.053     1157413.598       -4512.427          44.000  
  21212171.051      816675.361       -3238.545          44.000  
  22456815.632     -121610.862         449.153          44.000  
  21596300.775     -190322.956         696.144          44.000  
  20240451.733       94322.419        -437.406          44.000  
  22644052.926     -499307.494        1959.567          44.000  
  21963510.296     -576605.292        2203.548          44.000  
  25264890.222      991299.415       -3867.261          44.000  
  24895971.731     -405309.462        1502.328          44.000  
  22684384.008      982198.627       -3903.883          44.000  
 14 12 20  0  4 17.0000000  0 13G 1G 2G 3G32G20G23G 6G17G 9G10G11G12
                                G28
  23870764.807      853875.777       -3303.030          44.000  
  24840975.555     -379089.172        1436.446          44.000  
  22174996.849      931237.865       -3648.197          44.000  
  25855726.622     1161924.258       -4509.222          44.000  
  21212787.724      819913.194       -3236.976          44.000  
  22456730.597     -122060.093         449.212          44.000  
  21596168.467     -191019.111         696.578          44.000  
  20240534.935       94759.561        -436.800          44.000  
  22643680.276     -501266.048        1957.714          44.000  
  21963091.334     -578807.229        2200.729          44.000  
  25265626.656      995166.798       -3867.469          44.000  
  24895685.826     -406812.480        1503.946          44.000  
  22685127.615      986104.416       -3907.634          44.000  
 14 12 20  0  4 18.0000000  0 13G 1G 2G 3G32G20G23G 6G17G 9G10G11G12
                                G28
  23871393.417      857178.301       -3302.955          44.000  
  24840702.389     -380525.489        1435.688          44.000  
  22175691.315      934885.103       -3647.228          44.000  
  25856585.190     1166431.999       -4506.748          44.000  
  21213404.066      823149.490       -3236.466          44.000  
  22456645.073     -122508.752         447.756          44.000  
  21596036.352     -191715.964         696.459          44.000  
  20240617.963       95196.902        -438.541          44.000  
  22643307.941     -503222.424        1954.260          44.000  
  21962673.000     -581006.587        2197.356          44.000  
  25266362.793      999034.164       -3868.037          44.000  
  24895399.887     -408317.460        1505.349          44.000  
  22685871.273      990013.350       -3911.646          44.000  
 14 12 20  0  4 19.0000000  0 13G 1G 2G 3G32G20G23G 6G17G 9G10G11G12
                                G28
  23872021.886      860479.880       -3300.834          44.000  
  24840428.804     -381962.020        1436.947          44.000  
  22176385.450      938530.541       -3644.024          44.000  
  25857442.327     1170937.066       -4503.541          44.000  
  21214020.076      826384.443       -3234.037          44.000  
  22456559.759     -122956.505         447.179          44.000  
  21595903.730     -192413.613         698.757          44.000  
  20240701.393       95634.556        -437.649          44.000  
  22642936.531     -505176.357        1952.732          44.000  
  21962255.817     -583203.402        2196.011          44.000  
  25267098.669     1002901.861       -3867.491          44.000  
  24895113.791     -409824.498        1508.822          44.000  
  22686616.083      993925.456       -3913.596          44.000  
 14 12 20  0  4 20.0000000  0 13G 1G 2G 3G32G20G23G 6G17G 9G10G11G12
                                G28
  23872650.373      863780.554       -3300.852          44.000  
  24840155.255     -383399.161        1437.019          44.000  
  22177079.445      942174.105       -3643.145          44.000  
  25858299.098     1175439.435       -4501.694          44.000  
  21214635.162      829618.003       -3233.586          44.000  
  22456475.003     -123403.333         445.221          44.000  
  21595770.707     -193112.421         699.017          44.000  
  20240785.154       96072.334        -438.503          44.000  
  22642565.696     -507127.912        1949.889          44.000  
  21961839.228     -585398.004        2193.374          44.000  
  25267835.190     1006769.961       -3869.052          44.000  
  24894826.804     -411333.959        1510.303          44.000  
  22687361.417      997840.476       -3917.542          44.000  
 14 12 20  0  4 21.0000000  0 13G 1G 2G 3G32G20G23G 6G17G 9G10G11G12
                                G28
  23873278.232      867081.079       -3300.042          44.000  
  24839880.850     -384836.693        1438.287          44.000  
  22177773.091      945816.466       -3641.318          44.000  
  25859155.764     1179939.811       -4499.000          44.000  
  21215250.491      832850.809       -3232.156          44.000  
  22456391.242     -123848.523         444.041          44.000  
  21595638.173     -193812.032         700.133          44.000  
  20240869.089       96510.731        -438.207          44.000  
  22642194.635     -509076.434        1947.436          44.000  
  21961422.517     -587590.039        2191.148          44.000  
  25268571.799     1010639.246       -3869.705          44.000  
  24894539.452     -412845.455        1512.812          44.000  
  22688106.820     1001758.846       -3919.820          44.000  
 14 12 20  0  4 22.0000000  0 13G 1G 2G 3G32G20G23G 6G17G 9G10G11G12
                                G28
  23873906.928      870381.267       -3300.811          44.000  
  24839607.737     -386275.334        1438.883          44.000  
  22178466.162      949457.320       -3640.927          44.000  
  25860012.290     1184437.944       -4497.897          44.000  
  21215866.327      836082.533       -3232.003          44.000  
  22456306.522     -124292.323         442.996          44.000  
  21595504.609     -194513.079         701.085          44.000  
  20240952.624       96949.305        -439.159          44.000  
  22641824.638     -511022.261        1944.196          44.000  
  21961005.963     -589780.127        2188.508          44.000  
  25269308.390     1014509.516       -3871.573          44.000  
  24894251.383     -414359.597        1514.603          44.000  
  22688853.044     1005679.979       -3923.178          44.000  
 14 12 20  0  4 23.0000000  0 13G 1G 2G 3G32G20G23G 6G17G 9G10G11G12
                                G28
  23874535.311      873681.635       -3300.960          44.000  
  24839334.292     -387715.061        1440.057          44.000  
  22179158.429      953097.125       -3639.438          44.000  
  25860867.875     1188934.297       -4496.167          44.000  
  21216481.639      839313.617       -3230.705          44.000  
  22456222.761     -124734.304         440.576          44.000  
  21595370.224     -195215.442         702.547          44.000  
  20241036.158       97388.323        -439.521          44.000  
  22641455.862     -512965.026        1940.911          44.000  
  21960590.194     -591968.193        2186.651          44.000  
  25270045.138     1018381.292       -3872.732          44.000  
  24893963.717     -415876.204        1517.382          44.000  
  22689600.071     1009604.019       -3926.133          44.000  
 14 12 20  0  4 24.0000000  0 13G 1G 2G 3G32G20G23G 6G17G 9G10G11G12
                                G28
  23875163.606      876982.466       -3301.648          44.000  
  24839060.812     -389156.059        1441.421          44.000  
  22179850.889      956736.119       -3639.051          44.000  
  25861723.720     1193429.157       -4495.114          44.000  
  21217096.462      842544.248       -3230.844          44.000  
  22456139.540     -125174.179         438.111          44.000  
  21595236.364     -195919.177         704.255          44.000  
  20241119.901       97827.827        -440.152          44.000  
  22641087.313     -514904.578        1937.578          44.000  
  21960174.530     -594154.342        2185.090          44.000  
  25270782.951     1022254.855       -3874.943          44.000  
  24893674.549     -417395.335        1519.958          44.000  
  22690347.812     1013530.904       -3928.709          44.000  
 14 12 20  0  4 25.0000000  0 13G 1G 2G 3G32G20G23G 6G17G 9G10G11G12
                                G28
  23875791.831      880283.659       -3301.816          44.000  
  24838786.809     -390598.973        1443.803          44.000  
  22180543.994      960374.063       -3637.265          44.000  
  25862578.589     1197922.374       -4492.638          44.000  
  21217711.146      845774.207       -3230.037          44.000  
  22456057.053     -125612.183         436.791          44.000  
  21595102.276     -196624.835         706.544          44.000  
  20241203.854       98267.462        -439.956          44.000  
  22640718.032     -516841.271        1935.181          44.000  
  21959758.848     -596339.200        2184.470          44.000  
  25271520.781     1026130.050       -3875.452          44.000  
  24893385.207     -418917.448        1523.477          44.000  
  22691095.921     1017460.054       -3929.829          44.000  
 14 12 20  0  4 26.0000000  0 13G 1G 2G 3G32G20G23G 6G17G 9G10G11G12
                                G28
  23876419.865      883585.858       -3302.529          44.000  
  24838512.195     -392043.584        1446.613          44.000  
  22181237.431      964011.634       -3637.300          44.000  
  25863433.440     1202414.614       -4491.661          44.000  
  21218326.144      849004.076       -3229.369          44.000  
  22455974.723     -126047.741         434.030          44.000  
  21594968.433     -197332.081         708.835          44.000  
  20241288.034       98707.624        -440.119          44.000  
  22640351.141     -518774.592        1932.617          44.000  
  21959343.254     -598522.522        2182.983          44.000  
  25272259.379     1030007.516       -3878.513          44.000  
  24893095.760     -420442.169        1526.407          44.000  
  22691844.570     1021391.724       -3932.005          44.000  
 14 12 20  0  4 27.0000000  0 13G 1G 2G 3G32G20G23G 6G17G 9G10G11G12
                                G28
  23877048.631      886889.049       -3304.251          44.000  
  24838237.179     -393490.412        1447.001          44.000  
  22181930.466      967648.730       -3637.779          44.000  
  25864288.082     1206905.840       -4492.036          44.000  
  21218941.142      852233.767       -3230.443          44.000  
  22455892.044     -126480.956         431.362          44.000  
  21594833.683     -198041.323         709.632          44.000  
  20241372.319       99148.062        -441.889          44.000  
  22639983.727     -520704.821        1928.337          44.000  
  21958927.450     -600704.806        2181.202          44.000  
  25272997.575     1033887.203       -3881.538          44.000  
  24892805.319     -421969.798        1528.368          44.000  
  22692593.446     1025325.441       -3935.056          44.000  
 14 12 20  0  4 28.0000000  0 13G 1G 2G 3G32G20G23G 6G17G 9G10G11G12
                                G28
  23877677.903      890193.623       -3305.533          44.000  
  24837962.181     -394939.450        1449.314          44.000  
  22182622.751      971285.717       -3637.311          44.000  
  25865143.091     1211396.504       -4490.553          44.000  
  21219556.228      855463.624       -3230.180          44.000  
  22455810.237     -126911.535         428.358          44.000  
  21594698.618     -198752.475         711.006          44.000  
  20241456.708       99588.946        -441.592          44.000  
  22639617.325     -522631.757        1924.900          44.000  
  21958513.391     -602886.105        2180.556          44.000  
  25273737.796     1037769.444       -3883.617          44.000  
  24892514.860     -423500.193        1531.313          44.000  
  22693342.811     1029261.212       -3937.253          44.000  
 14 12 20  0  4 29.0000000  0 13G 1G 2G 3G32G20G23G 6G17G 9G10G11G12
                                G28
  23878307.018      893499.480       -3305.877          44.000  
  24837685.595     -396391.245        1453.817          44.000  
  22183314.373      974922.481       -3636.373          44.000  
  25865997.907     1215886.488       -4489.404          44.000  
  21220171.400      858693.441       -3229.640          44.000  
  22455728.989     -127339.657         427.125          44.000  
  21594563.937     -199465.935         715.160          44.000  
  20241541.185      100029.957        -440.754          44.000  
  22639251.498     -524555.767        1922.702          44.000  
  21958098.600     -605066.969        2180.983          44.000  
  25274477.109     1041654.092       -3885.853          44.000  
  24892222.394     -425033.665        1534.685          44.000  
  22694092.647     1033198.448       -3937.273          44.000  
 14 12 20  0  4 30.0000000  0 13G 1G 2G 3G32G20G23G 6G17G 9G10G11G12
                                G28
  23878936.692      896807.292       -3309.296          44.000  
  24837409.149     -397845.490        1455.585          44.000  
  22184006.606      978559.708       -3637.776          44.000  
  25866852.357     1220376.571       -4490.474          44.000  
  21220786.014      861923.922       -3231.172          44.000  
  22455648.369     -127764.750         423.727          44.000  
  21594427.756     -200181.318         716.123          44.000  
  20241625.818      100471.543        -442.488          44.000  
  22638886.230     -526476.388        1918.708          44.000  
  21957683.668     -607247.129        2179.792          44.000  
  25275216.685     1045541.774       -3889.540          44.000  
  24891930.435     -426569.707        1537.304          44.000  
  22694842.290     1037137.430       -3939.866          44.000  
 14 12 20  0  4 31.0000000  0 13G 1G 2G 3G32G20G23G 6G17G 9G10G11G12
                                G28
  23879567.325      900117.431       -3311.049          44.000  
  24837132.214     -399302.208        1459.026          44.000  
  22184698.856      982197.727       -3637.476          44.000  
  25867707.557     1224867.120       -4490.205          44.000  
  21221401.745      865155.351       -3230.624          44.000  
  22455569.023     -128186.604         420.525          44.000  
  21594291.487     -200898.514         718.873          44.000  
  20241710.190      100913.895        -441.594          44.000  
  22638522.027     -528393.541        1916.022          44.000  
  21957268.807     -609426.701        2180.325          44.000  
  25275956.940     1049432.774       -3892.137          44.000  
  24891637.882     -428108.172        1540.293          44.000  
  22695592.336     1041078.035       -3940.953          44.000  
 14 12 20  0  4 32.0000000  0 13G 1G 2G 3G32G20G23G 6G17G 9G10G11G12
                                G28
  23880198.552      903429.257       -3313.051          44.000  
  24836854.686     -400762.362        1461.176          44.000  
  22185391.246      985835.939       -3639.064          44.000  
  25868562.653     1229357.583       -4491.338          44.000  
  21222016.499      868387.086       -3232.552          44.000  
  22455489.328     -128605.923         417.623          44.000  
  21594155.061     -201618.385         720.766          44.000  
  20241794.387      101356.157        -443.315          44.000  
  22638158.207     -530308.092        1912.692          44.000  
  21956854.469     -611606.726        2179.179          44.000  
  25276698.505     1053326.376       -3895.698          44.000  
  24891344.788     -429649.756        1542.573          44.000  
  22696343.096     1045019.238       -3942.033          44.000  
 14 12 20  0  4 33.0000000  0 13G 1G 2G 3G32G20G23G 6G17G 9G10G11G12
                                G28
  23880829.151      906743.583       -3315.299          44.000  
  24836576.704     -402225.401        1464.707          44.000  
  22186083.775      989475.195       -3639.538          44.000  
  25869417.469     1233848.871       -4491.352          44.000  
  21222631.584      871619.933       -3233.101          44.000  
  22455410.086     -129022.005         414.740          44.000  
  21594017.710     -202340.313         722.927          44.000  
  20241878.270      101799.012        -442.793          44.000  
  22637794.806     -532219.493        1909.850          44.000  
  21956439.066     -613786.760        2180.588          44.000  
  25277439.842     1057223.348       -3898.749          44.000  
  24891051.450     -431193.756        1545.552          44.000  
  22697092.880     1048961.422       -3942.497          44.000  
 14 12 20  0  4 34.0000000  0 13G 1G 2G 3G32G20G23G 6G17G 9G10G11G12
                                G28
  23881460.936      910060.717       -3318.536          44.000  
  24836298.216     -403691.331        1466.979          44.000  
  22186776.723      993115.806       -3641.278          44.000  
  25870272.792     1238341.351       -4493.208          44.000  
  21223246.966      874854.195       -3235.093          44.000  
  22455331.822     -129434.686         411.064          44.000  
  21593880.813     -203064.195         724.795          44.000  
  20241963.044      102242.584        -444.276          44.000  
  22637432.470     -534127.731        1906.637          44.000  
  21956023.699     -615966.917        2180.577          44.000  
  25278182.122     1061123.866       -3902.143          44.000  
  24890757.693     -432739.940        1547.264          44.000  
  22697844.025     1052904.466       -3943.662          44.000  
 14 12 20  0  4 35.0000000  0 13G 1G 2G 3G32G20G23G 6G17G 9G10G11G12
                                G28
  23882092.616      913380.845       -3321.404          44.000  
  24836019.466     -405160.144        1470.467          44.000  
  22187469.985      996758.014       -3643.391          44.000  
  25871128.725     1242835.310       -4495.040          44.000  
  21223863.186      878090.060       -3236.738          44.000  
  22455254.186     -129843.884         407.362          44.000  
  21593743.061     -203789.938         727.049          44.000  
  20242047.642      102686.928        -444.924          44.000  
  22637070.378     -536032.868        1904.041          44.000  
  21955609.221     -618147.361        2180.806          44.000  
  25278924.978     1065028.044       -3906.359          44.000  
  24890463.028     -434288.118        1549.117          44.000  
  22698594.960     1056848.155       -3943.566          44.000  
 14 12 20  0  4 36.0000000  0 13G 1G 2G 3G32G20G23G 6G17G 9G10G11G12
                                G28
  23882725.117      916703.291       -3323.518          44.000  
  24835739.547     -406632.748        1474.007          44.000  
  22188163.474     1000401.228       -3643.818          44.000  
  25871983.367     1247330.205       -4495.896          44.000  
  21224479.335      881326.899       -3237.492          44.000  
  22455176.829     -130250.374         405.078          44.000  
  21593604.175     -204518.350         729.680          44.000  
  20242132.642      103131.256        -444.686          44.000  
  22636708.670     -537935.813        1901.958          44.000  
  21955194.499     -620329.093        2182.441          44.000  
  25279668.479     1068935.149       -3909.115          44.000  
  24890167.684     -435838.944        1552.010          44.000  
  22699345.529     1060791.459       -3942.739          44.000  
 14 12 20  0  4 37.0000000  0 13G 1G 2G 3G32G20G23G 6G17G 9G10G11G12
                                G28
  23883358.089      920028.674       -3327.042          44.000  
  24835458.651     -408108.641        1477.540          44.000  
  22188857.243     1004046.102       -3646.041          44.000  
  25872839.055     1251826.745       -4498.024          44.000  
  21225095.660      884565.343       -3239.479          44.000  
  22455100.816     -130653.679         401.534          44.000  
  21593464.888     -205248.876         730.810          44.000  
  20242217.119      103576.058        -445.543          44.000  
  22636346.665     -539836.255        1899.077          44.000  
  21954780.092     -622511.821        2182.874          44.000  
  25280412.818     1072845.664       -3912.790          44.000  
  24889872.583     -437391.780        1553.537          44.000  
  22700096.097     1064734.627       -3942.938          44.000  
 14 12 20  0  4 38.0000000  0 13G 1G 2G 3G32G20G23G 6G17G 9G10G11G12
                                G28
  23883991.270      923357.686       -3330.521          44.000  
  24835176.777     -409587.279        1480.609          44.000  
  22189551.657     1007693.419       -3648.090          44.000  
  25873695.407     1256325.761       -4500.262          44.000  
  21225712.595      887806.147       -3241.593          44.000  
  22455025.100     -131053.200         398.258          44.000  
  21593326.315     -205980.857         733.220          44.000  
  20242302.712      104021.970        -445.807          44.000  
  22635986.039     -541733.732        1896.564          44.000  
  21954365.457     -624695.133        2184.205          44.000  
  25281158.414     1076760.184       -3916.012          44.000  
  24889576.139     -438945.828        1555.062          44.000  
  22700845.811     1068677.970       -3942.934          44.000  
 14 12 20  0  4 39.0000000  0 13G 1G 2G 3G32G20G23G 6G17G 9G10G11G12
                                G28
  23884625.446      926689.554       -3333.662          44.000  
  24834894.346     -411069.450        1484.111          44.000  
  22190246.385     1011342.492       -3650.030          44.000  
  25874552.039     1260826.582       -4501.642          44.000  
  21226330.088      891048.546       -3243.190          44.000  
  22454949.977     -131449.843         395.401          44.000  
  21593187.028     -206715.092         735.404          44.000  
  20242388.044      104468.139        -445.989          44.000  
  22635625.901     -543629.288        1894.535          44.000  
  21953950.002     -626880.066        2185.637          44.000  
  25281904.672     1080677.837       -3919.494          44.000  
  24889280.619     -440501.776        1556.971          44.000  
  22701596.921     1072620.460       -3941.121          44.000  
 14 12 20  0  4 40.0000000  0 13G 1G 2G 3G32G20G23G 6G17G 9G10G11G12
                                G28
  23885260.982      930024.298       -3336.487          44.000  
  24834611.966     -412555.247        1487.261          44.000  
  22190941.479     1014993.421       -3652.918          44.000  
  25875409.699     1265329.377       -4504.405          44.000  
  21226947.215      894292.678       -3245.243          44.000  
  22454875.202     -131843.685         391.965          44.000  
  21593047.391     -207451.536         737.225          44.000  
  20242473.131      104914.510        -447.521          44.000  
  22635265.415     -545523.155        1892.379          44.000  
  21953533.692     -629066.816        2187.076          44.000  
  25282650.722     1084598.552       -3922.879          44.000  
  24888984.768     -442059.421        1557.765          44.000  
  22702347.088     1076561.758       -3941.310          44.000  
 14 12 20  0  4 41.0000000  0 13G 1G 2G 3G32G20G23G 6G17G 9G10G11G12
                                G28
  23885896.781      933362.579       -3339.579          44.000  
  24834329.255     -414043.946        1489.958          44.000  
  22191637.062     1018646.959       -3654.809          44.000  
  25876266.767     1269834.944       -4506.941          44.000  
  21227565.232      897539.238       -3247.545          44.000  
  22454801.685     -132234.181         388.959          44.000  
  21592907.336     -208189.472         738.921          44.000  
  20242558.497      105361.744        -447.427          44.000  
  22634906.097     -547414.896        1891.019          44.000  
  21953118.098     -631254.948        2188.760          44.000  
  25283397.835     1088522.857       -3925.743          44.000  
  24888688.690     -443617.965        1558.412          44.000  
  22703097.221     1080502.276       -3940.353          44.000  
 14 12 20  0  4 42.0000000  0 13G 1G 2G 3G32G20G23G 6G17G 9G10G11G12
                                G28
  23886533.208      936704.184       -3342.843          44.000  
  24834045.707     -415535.706        1493.746          44.000  
  22192333.361     1022303.029       -3657.494          44.000  
  25877125.579     1274343.235       -4508.919          44.000  
  21228183.982      900788.110       -3249.666          44.000  
  22454728.237     -132621.636         386.586          44.000  
  21592767.245     -208928.997         740.163          44.000  
  20242643.916      105809.635        -448.122          44.000  
  22634546.675     -549304.930        1889.407          44.000  
  21952701.806     -633444.794        2190.849          44.000  
  25284145.717     1092450.469       -3928.888          44.000  
  24888391.949     -445177.362        1559.731          44.000  
  22703846.271     1084441.575       -3938.626          44.000  
 14 12 20  0  4 43.0000000  0 13G 1G 2G 3G32G20G23G 6G17G 9G10G11G12
                                G28
  23887169.862      940048.908       -3346.619          44.000  
  24833762.071     -417030.660        1495.754          44.000  
  22193029.747     1025961.542       -3660.212          44.000  
  25877984.619     1278854.184       -4512.402          44.000  
  21228802.627      904039.185       -3253.100          44.000  
  22454654.946     -133006.344         382.939          44.000  
  21592626.352     -209670.209         741.877          44.000  
  20242730.085      106257.980        -448.935          44.000  
  22634187.305     -551193.694        1887.666          44.000  
  21952284.431     -635636.688        2193.089          44.000  
  25284893.336     1096381.070       -3931.873          44.000  
  24888094.807     -446737.587        1560.227          44.000  
  22704595.950     1088379.251       -3938.015          44.000  
 14 12 20  0  4 44.0000000  0 13G 1G 2G 3G32G20G23G 6G17G 9G10G11G12
                                G28
  23887807.283      943396.903       -3350.629          44.000  
  24833477.144     -418528.501        1498.150          44.000  
  22193727.232     1029622.755       -3662.815          44.000  
  25878843.902     1283368.076       -4516.308          44.000  
  21229422.302      907292.715       -3255.687          44.000  
  22454582.807     -133388.265         379.605          44.000  
  21592485.250     -210412.808         742.096          44.000  
  20242815.085      106706.951        -449.610          44.000  
  22633828.442     -553081.247        1886.349          44.000  
  21951867.162     -637830.612        2193.745          44.000  
  25285641.794     1100314.669       -3936.043          44.000  
  24887798.188     -448298.241        1559.769          44.000  
  22705345.175     1092315.257       -3935.458          44.000  
 14 12 20  0  4 45.0000000  0 13G 1G 2G 3G32G20G23G 6G17G 9G10G11G12
                                G28
  23888445.874      946748.412       -3353.860          44.000  
  24833191.815     -420028.840        1501.395          44.000  
  22194425.276     1033287.043       -3665.793          44.000  
  25879703.046     1287885.335       -4519.041          44.000  
  21230042.098      910549.026       -3257.844          44.000  
  22454510.598     -133767.227         377.505          44.000  
  21592343.624     -211156.326         743.829          44.000  
  20242901.132      107156.871        -450.455          44.000  
  22633469.910     -554967.493        1885.854          44.000  
  21951449.979     -640026.318        2196.828          44.000  
  25286391.298     1104251.467       -3938.005          44.000  
  24887501.482     -449858.765        1560.271          44.000  
  22706094.679     1096249.692       -3933.612          44.000  
 14 12 20  0  4 46.0000000  0 13G 1G 2G 3G32G20G23G 6G17G 9G10G11G12
                                G28
  23889083.749      950103.102       -3356.221          44.000  
  24832905.632     -421531.799        1503.177          44.000  
  22195123.651     1036954.175       -3668.767          44.000  
  25880563.237     1292405.746       -4522.300          44.000  
  21230662.698      913807.888       -3260.459          44.000  
  22454439.470     -134143.673         375.070          44.000  
  21592202.329     -211900.937         744.490          44.000  
  20242986.761      107607.434        -451.375          44.000  
  22633110.662     -556853.009        1884.687          44.000  
  21951032.256     -642224.215        2198.600          44.000  
  25287141.326     1108190.947       -3940.496          44.000  
  24887203.991     -451419.208        1560.061          44.000  
  22706843.049     1100182.108       -3931.888          44.000  
 14 12 20  0  4 47.0000000  0 13G 1G 2G 3G32G20G23G 6G17G 9G10G11G12
                                G28
  23889723.213      953460.843       -3359.562          44.000  
  24832619.849     -423037.225        1506.550          44.000  
  22195822.008     1040624.218       -3671.384          44.000  
  25881424.632     1296929.377       -4525.126          44.000  
  21231283.804      917069.358       -3262.674          44.000  
  22454368.518     -134517.748         373.085          44.000  
  21592061.000     -212646.475         745.699          44.000  
  20243073.314      108058.664        -451.429          44.000  
  22632752.409     -558737.966        1885.140          44.000  
  21950613.137     -644424.359        2201.556          44.000  
  25287891.336     1112132.993       -3943.519          44.000  
  24886907.634     -452979.286        1559.663          44.000  
  22707590.966     1104112.333       -3929.008          44.000  
 14 12 20  0  4 48.0000000  0 13G 1G 2G 3G32G20G23G 6G17G 9G10G11G12
                                G28
  23890362.728      956821.865       -3362.995          44.000  
  24832333.125     -424544.651        1508.404          44.000  
  22196521.588     1044297.483       -3675.037          44.000  
  25882286.115     1301456.560       -4529.638          44.000  
  21231905.049      920333.699       -3265.942          44.000  
  22454298.193     -134889.343         370.418          44.000  
  21591918.885     -213392.474         745.413          44.000  
  20243158.767      108510.837        -452.605          44.000  
  22632393.458     -560622.365        1883.825          44.000  
  21950194.070     -646626.527        2202.706          44.000  
  25288642.132     1116077.656       -3946.242          44.000  
  24886611.224     -454538.488        1558.885          44.000  
  22708338.812     1108040.490       -3927.439          44.000  
 14 12 20  0  4 49.0000000  0 13G 1G 2G 3G32G20G23G 6G17G 9G10G11G12
                                G28
  23891002.645      960185.643       -3364.539          44.000  
  24832046.243     -426054.267        1510.816          44.000  
  22197220.905     1047973.592       -3677.128          44.000  
  25883148.574     1305986.932       -4532.106          44.000  
  21232526.713      923600.567       -3267.845          44.000  
  22454228.201     -135259.018         369.249          44.000  
  21591777.068     -214139.163         747.233          44.000  
  20243245.181      108963.592        -452.596          44.000  
  22632035.100     -562506.807        1885.070          44.000  
  21949775.195     -648831.113        2206.430          44.000  
  25289393.381     1120024.332       -3947.152          44.000  
  24886314.379     -456096.920        1558.566          44.000  
  22709086.223     1111966.109       -3924.769          44.000  
 14 12 20  0  4 50.0000000  0 13G 1G 2G 3G32G20G23G 6G17G 9G10G11G12
                                G28
  23891643.434      963552.144       -3368.233          44.000  
  24831759.083     -427565.736        1512.123          44.000  
  22197921.060     1051652.688       -3680.725          44.000  
  25884010.859     1310520.643       -4535.522          44.000  
  21233149.424      926870.071       -3271.487          44.000  
  22454158.208     -135626.832         366.546          44.000  
  21591635.232     -214886.222         746.728          44.000  
  20243331.751      109417.045        -454.177          44.000  
  22631677.545     -564391.408        1884.475          44.000  
  21949355.796     -651038.008        2207.511          44.000  
  25290145.625     1123972.946       -3949.714          44.000  
  24886018.441     -457654.200        1556.330          44.000  
  22709833.144     1115889.184       -3922.080          44.000  
 14 12 20  0  4 51.0000000  0 13G 1G 2G 3G32G20G23G 6G17G 9G10G11G12
                                G28
  23892284.486      966921.177       -3370.165          44.000  
  24831471.590     -429078.943        1514.166          44.000  
  22198622.018     1055334.669       -3683.186          44.000  
  25884874.593     1315057.594       -4538.526          44.000  
  21233771.925      930142.118       -3273.256          44.000  
  22454088.634     -135993.053         365.666          44.000  
  21591492.838     -215633.553         747.299          44.000  
  20243419.003      109871.151        -454.571          44.000  
  22631319.292     -566276.470        1884.879          44.000  
  21948935.281     -653247.283        2210.208          44.000  
  25290897.764     1127923.191       -3951.013          44.000  
  24885722.921     -459210.163        1555.032          44.000  
  22710579.141     1119809.558       -3918.531          44.000  
 14 12 20  0  4 52.0000000  0 13G 1G 2G 3G32G20G23G 6G17G 9G10G11G12
                                G28
  23892926.095      970293.018       -3373.523          44.000  
  24831183.592     -430593.138        1514.190          44.000  
  22199324.058     1059019.974       -3687.889          44.000  
  25885739.827     1319598.229       -4542.583          44.000  
  21234395.457      933417.129       -3277.138          44.000  
  22454019.217     -136357.409         363.171          44.000  
  21591351.038     -216380.482         746.101          44.000  
  20243506.480      110326.363        -456.318          44.000  
  22630960.516     -568161.732        1884.809          44.000  
  21948514.434     -655458.439        2211.770          44.000  
  25291650.706     1131875.284       -3953.362          44.000  
  24885428.030     -460764.053        1552.715          44.000  
  22711325.016     1123727.597       -3917.460          44.000  
 14 12 20  0  4 53.0000000  0 13G 1G 2G 3G32G20G23G 6G17G 9G10G11G12
                                G28
  23893568.438      973666.867       -3374.506          44.000  
  24830895.262     -432108.744        1516.336          44.000  
  22200025.574     1062707.925       -3689.715          44.000  
  25886604.712     1324141.835       -4545.151          44.000  
  21235019.424      936694.431       -3278.399          44.000  
  22453950.428     -136720.750         362.463          44.000  
  21591208.557     -217127.473         746.715          44.000  
  20243592.562      110782.078        -455.896          44.000  
  22630602.141     -570048.075        1886.335          44.000  
  21948094.163     -657672.082        2214.538          44.000  
  25292403.823     1135828.330       -3953.548          44.000  
  24885132.685     -462316.309        1551.805          44.000  
  22712070.035     1127642.664       -3913.733          44.000  
 14 12 20  0  4 54.0000000  0 13G 1G 2G 3G32G20G23G 6G17G 9G10G11G12
                                G28
  23894211.339      977042.900       -3377.293          44.000  
  24830607.333     -433625.108        1516.541          44.000  
  22200727.928     1066398.851       -3692.180          44.000  
  25887470.016     1328688.764       -4548.736          44.000  
  21235643.897      939974.360       -3281.547          44.000  
  22453882.023     -137082.887         361.304          44.000  
  21591067.385     -217873.936         745.547          44.000  
  20243679.639      111238.666        -457.248          44.000  
  22630242.492     -571935.293        1887.666          44.000  
  21947672.915     -659887.752        2216.355          44.000  
  25293155.997     1139782.476       -3954.605          44.000  
  24884838.247     -463866.273        1548.014          44.000  
  22712814.968     1131555.075       -3911.069          44.000  
 14 12 20  0  4 55.0000000  0 13G 1G 2G 3G32G20G23G 6G17G 9G10G11G12
                                G28
  23894854.955      980420.950       -3378.435          44.000  
  24830319.230     -435141.946        1517.016          44.000  
  22201430.648     1070092.701       -3695.260          44.000  
  25888336.751     1333238.929       -4551.625          44.000  
  21236269.139      943256.859       -3283.639          44.000  
  22453812.624     -137444.008         361.281          44.000  
  21590926.003     -218619.648         745.130          44.000  
  20243767.274      111696.187        -458.299          44.000  
  22629883.663     -573823.577        1888.888          44.000  
  21947251.300     -662105.345        2218.442          44.000  
  25293908.660     1143737.484       -3955.277          44.000  
  24884543.967     -465413.712        1546.437          44.000  
  22713559.010     1135464.863       -3908.381          44.000  
 14 12 20  0  4 56.0000000  0 13G 1G 2G 3G32G20G23G 6G17G 9G10G11G12
                                G28
  23895498.781      983800.592       -3380.036          44.000  
  24830030.778     -436659.183        1517.446          44.000  
  22202134.049     1073789.173       -3696.965          44.000  
  25889203.486     1337792.045       -4553.833          44.000  
  21236894.712      946541.670       -3285.228          44.000  
  22453744.271     -137804.519         360.853          44.000  
  21590784.377     -219364.627         745.053          44.000  
  20243855.066      112154.425        -458.676          44.000  
  22629523.770     -575713.295        1890.865          44.000  
  21946829.424     -664324.970        2221.090          44.000  
  25294661.864     1147692.907       -3955.175          44.000  
  24884250.193     -466958.588        1544.734          44.000  
  22714302.529     1139371.857       -3905.690          44.000  
 14 12 20  0  4 57.0000000  0 13G 1G 2G 3G32G20G23G 6G17G 9G10G11G12
                                G28
  23896142.345      987181.928       -3382.141          44.000  
  24829742.291     -438176.249        1516.713          44.000  
  22202838.497     1077488.490       -3700.406          44.000  
  25890070.639     1342348.269       -4557.235          44.000  
  21237520.651      949828.985       -3288.425          44.000  
  22453675.989     -138164.310         359.566          44.000  
  21590643.013     -220108.358         743.495          44.000  
  20243942.317      112613.724        -459.422          44.000  
  22629164.068     -577604.307        1891.846          44.000  
  21946407.041     -666546.170        2222.356          44.000  
  25295414.334     1151648.765       -3955.558          44.000  
  24883957.640     -468500.421        1539.807          44.000  
  22715046.606     1143276.397       -3903.371          44.000  
 14 12 20  0  4 58.0000000  0 13G 1G 2G 3G32G20G23G 6G17G 9G10G11G12
                                G28
  23896786.345      990563.997       -3382.812          44.000  
  24829453.455     -439693.566        1517.491          44.000  
  22203543.416     1081189.818       -3702.714          44.000  
  25890938.142     1346906.754       -4559.629          44.000  
  21238146.573      953118.008       -3290.144          44.000  
  22453608.439     -138524.308         360.104          44.000  
  21590502.207     -220851.376         742.003          44.000  
  20244029.795      113073.360        -460.425          44.000  
  22628804.262     -579497.508        1894.111          44.000  
  21945984.065     -668769.551        2224.071          44.000  
  25296167.556     1155604.114       -3955.598          44.000  
  24883664.581     -470039.680        1537.057          44.000  
  22715789.776     1147177.802       -3900.446          44.000  
 14 12 20  0  4 59.0000000  0 13G 1G 2G 3G32G20G23G 6G17G 9G10G11G12
                                G28
  23897430.712      993947.159       -3382.946          44.000  
  24829165.265     -441210.303        1516.990          44.000  
  22204248.614     1084893.596       -3704.772          44.000  
  25891805.976     1351467.921       -4562.241          44.000  
  21238773.245      956409.181       -3291.931          44.000  
  22453540.173     -138884.137         359.812          44.000  
  21590361.296     -221592.932         741.142          44.000  
  20244118.180      113533.929        -460.908          44.000  
  22628443.584     -581392.427        1896.875          44.000  
  21945560.758     -670994.400        2225.938          44.000  
  25296920.567     1159559.270       -3954.624          44.000  
  24883372.447     -471575.643        1535.116          44.000  
  22716532.091     1151076.737       -3897.333          44.000  
 14 12 20  0  5  0.0000000  0  9G 3G32G20G23G 6G 9G10G11G28
  22204954.894     1088598.8063      -3704.409          17.000  
  25892675.398     1356030.2093      -4558.548          24.000  
  21239399.498      959701.7873      -3290.282          18.000  
  22453470.477     -139248.0023        375.779          26.000  
  21590220.735     -222333.3683        739.589          14.000  
  22628083.708     -583288.8673       1897.766          24.000  
  21945137.206     -673219.2503       2220.208          15.000  
  25297673.160     1163513.5423      -3951.391          16.000  
  22717272.626     1154974.5213      -3899.532          23.000  
